X,Y,OBJECTID,ID,Status,MeterID,DualID,Jurisdiction,Block,Street,XStreetA,XStreetB,LocationDescription,Notes,Comments,Installed,Retired,Handicap,LinearFeet,Hours,Manufacturer,Models,MetroAreas,MeterType,NFC,Side,Rate,TourBus,TimeRestriction,AddressNumber,City,County,EstimatedOCI,LocatorAddressNumber,LocatorCity,LocatorStreet,StateValue,Replaced,TotalCost,EntryDate,cgLastModified,GeoSyncDate,Latitude,Longitude,cgGeoSyncDate,BlockFaceID,PerformanceParking,CellZone,Spaces,PricingZone,PricingSubzone,Par1MainGeneralOID
11894700.5345187,7000558.01117507,1,111,Permanently Removed,120404S,,Arlington County,300,12th ST S,ARMY NAVY DR,S EADS ST,54355 - 120404S,"FORMERLY 120300S 8/27/2020, CHANGED HOURS 12 TO 2, RATE $1.25 TO $1.50",INSTALLED 9/14/09,2009/09/14 00:00:00+00,2022/06/16 00:00:00+00,No,151,2,CALE,CWT-S4-Touch Stealth,Crystal City,Multi,No,South,1.75,No,MON - SAT 8AM - 8PM,,,,,,,,,2020/08/27 00:00:00+00,0,2019/05/09 11:42:26+00,2023/10/26 08:39:54+00,2024/10/13 02:10:31+00,38.86293569,-77.05377643,,,No,54355,7,,,111510
11879270.8317824,7007167.75254872,2,2852,Permanently Removed,QU909N,QU911N,Arlington County,900,N QUINCY ST,FAIRFAX DR,9th ST N,,SOUTH TO EAST,,1970/01/02 00:00:00+00,2015/11/16 00:00:00+00,No,20,,POM,,Virginia Square,Double,,East,,No,,,,,,,,,,1970/01/02 00:00:00+00,0,2019/05/09 11:43:36+00,2024/09/23 10:17:49+00,2024/10/13 02:10:31+00,38.88173715,-77.10760646,,NQUFA9TE,No,54177,1,,,147909
11885484.6713888,6992572.27944314,3,2761,Permanently Removed,QU2707S,QU2709S,Arlington County,2700,S QUINCY ST,S ARLINGTON MILL DR,CAMPBELL AVE,,28 TO CAMPBELL,,1970/01/02 00:00:00+00,1970/01/02 00:00:00+00,No,20,,Duncan,,Shirlington,Double,,East,,No,,,,,,,,,,1970/01/02 00:00:00+00,0,2019/05/09 11:43:34+00,2024/09/23 10:19:06+00,2024/10/13 02:10:31+00,38.84140557,-77.08657001,,,No,2201,1,,,727771
11883739.9268468,7010077.70571831,4,1622,Active,ED1405N,ED1403N,Arlington County,1400,N EDGEWOOD ST,WILSON BLVD,FRANKLIN RD,54275 - ED1405N,,INSTALLED IPS 2/14/18,2018/02/14 00:00:00+00,,No,20,2,IPS,M5,Clarendon,Double,Yes,East,1.75,No,MON - SAT 8AM - 8PM,,,,96.78,,,,,2018/02/14 00:00:00+00,0,2019/05/09 11:43:05+00,2024/10/13 01:01:19+00,2024/10/13 02:10:31+00,38.88953901,-77.09175216,,NEDWIFRE,Yes,54275,1,Zone 120,B,1115796
11894247.9501221,6998063.83735764,5,1745,Active,FE01901S,,Arlington County,1900,S FERN ST,19th ST S,20th ST S,54057 - FE01901S,,INSTALLED 4/2/11,2011/04/02 00:00:00+00,,No,147.6,12,CALE,CWT-S4-Touch Stealth,Crystal City,Multi,No,East,1.50,No,MON - FRI 8AM - 8PM,,,,90.64,,,,,2021/06/28 00:00:00+00,4.25,2019/05/09 11:43:08+00,2024/10/13 01:01:19+00,2024/10/13 02:10:31+00,38.85610772,-77.05550351,,SFE1920E,Yes,54057,7.3800001,Zone 155,A,1853941
11895942.56878,6997205.71702665,6,1329,Permanently Removed,CR2220S,CR2222S,Arlington County,2200,CRYSTAL DR,20th ST S,23rd ST S,,Multi 1/15/16,,1970/01/02 00:00:00+00,1970/01/02 00:00:00+00,No,20,,POM,,Crystal City,Double,,West,,No,,,,,,,,,,1970/01/02 00:00:00+00,0,2019/05/09 11:42:59+00,2024/09/23 10:19:06+00,2024/10/13 02:10:31+00,38.85367847,-77.04960101,,SCR2023W,No,54066,1,,,2179025
11883108.9392636,7009499.7012969,7,1944,Active,GA1305N,,Arlington County,1300,N GARFIELD ST,WILSON BLVD,CLARENDON BLVD,54261 - GA1305N,CONVERTED TO IPS 01/11/2017 WEST TO EAST,INSTALL DATE- UNKOWN,2017/01/11 00:00:00+00,,No,20,2,IPS,M5,Clarendon,Single,Yes,East,1.75,No,MON - SAT 8AM - 8PM,,,,97.54,,,,,2018/10/29 00:00:00+00,0,2019/05/09 11:43:13+00,2024/10/13 01:01:19+00,2024/10/13 02:10:31+00,38.8879787,-77.09399981,,NGAWICLE,Yes,54261,1,Zone 121,B,4291646
11884970.3200553,7000306.94573231,8,1957,Permanently Removed,GA904S,GA906S,Arlington County,900,S GARFIELD ST,9th RD S,COLUMBIA PIKE,,,INSTALL DATE- UNKNOWN,1970/01/02 00:00:00+00,1970/01/02 00:00:00+00,No,20,,Duncan,,Columbia Pike,Double,,East,,No,,,,,,,,,,1970/01/02 00:00:00+00,0,2019/05/09 11:43:14+00,2024/09/23 10:19:06+00,2024/10/13 02:10:31+00,38.86266231,-77.08795796,,,No,54570,1,,,4577401
11888856.0370214,7011905.95009331,9,2584,Permanently Removed,OA1705N,OA1703N,Arlington County,1700,N OAK ST,17th ST N,CLARENDON BLVD,,"7/26/18 PERM REM FOR CAR SHARE, KEY TO 17, WILSON TO CLARENDON",INSTALLED IPS 10/30/17,2017/10/30 00:00:00+00,1970/01/02 00:00:00+00,No,20,2,IPS,,Rosslyn,Double,,East,1.75,No,NO RESTRICTIONS,,,,30.99,,,,,2017/10/30 00:00:00+00,0,2019/05/09 11:43:30+00,2024/09/23 10:25:13+00,2024/10/13 02:10:31+00,38.89434141,-77.07368036,,,No,54537,1,,,4717412
11878853.0836021,7008680.04939289,10,3163,Permanently Removed,WA4010N,WA4008N,Arlington County,4000,WASHINGTON BLVD,N RANDOLPH ST,N QUINCY ST,,3:30 to 6,CONVERTED TO CALE 3/3/18,1970/01/02 00:00:00+00,1970/01/02 00:00:00+00,No,20,,Duncan,,Ballston,Double,,North,,No,,,,,,,,,,1970/01/02 00:00:00+00,0,2019/05/09 11:43:44+00,2024/09/23 10:19:06+00,2024/10/13 02:10:31+00,38.88590642,-77.10899329,,NWARAQUN,No,54173,1,,,4970056
11887263.7619907,7011603.72924106,11,3242,Active,WI01800N,,Arlington County,1800,WILSON BLVD,N QUINN ST,N RHODES ST,54500 - WI01800N,,INSTALLED 4/9/11,2011/04/09 00:00:00+00,,No,56,2,CALE,CWT-S4-Touch Stealth,Rosslyn,Multi,No,South,1.75,No,MON - SAT 8AM - 8PM,,,,96.64,,,,,2021/09/27 00:00:00+00,3.25,2019/05/09 11:43:46+00,2024/10/13 01:01:19+00,2024/10/13 02:10:31+00,38.89357949,-77.07929056,,NWIQURHS,Yes,54500,2.8,Zone 110,B,6018135
11887070.444464,7011413.98388565,12,2943,Active,RH1605N,,Arlington County,1700,N RHODES ST,WILSON BLVD,CLARENDON BLVD,54422 - RH1605N,CONVERTED TO IPS METER 12/29/2016,INSTALL DATE- UNKNOWN,2016/12/29 00:00:00+00,,No,20,12,IPS,M5,Rosslyn,Single,Yes,East,1.50,No,MON - FRI 8AM - 8PM,,,,98.81,,,,,2021/02/23 00:00:00+00,0,2019/05/09 11:43:39+00,2024/10/13 01:01:19+00,2024/10/13 02:10:31+00,38.89306677,-77.07998,,NRHWICLE,Yes,54422,1,Zone 110,B,6092168
11885861.2631553,7004505.17880565,13,3099,Permanently Removed,WA2138S,WA2136S,Arlington County,2100,S WASHINGTON BLVD,8th ST S,6th ST S,,Perm Rem DHS use 4/13/15,,1970/01/02 00:00:00+00,1970/01/02 00:00:00+00,No,20,,MacKay,,Sequoia,Double,,South,,No,,,,,,,,,,1970/01/02 00:00:00+00,0,2019/05/09 11:43:42+00,2024/09/23 10:19:06+00,2024/10/13 02:10:31+00,38.87415055,-77.08460209,,,No,54623,1,,,6358055
11895782.3788117,6993426.57989989,14,2658,Active,PTM3505S,PTM3507S,Arlington County,3500,POTOMAC AVE,S GLEBE RD,35th ST S,54026 - PTM3505S,,INSTALLED IPS 2/23/18,2018/02/23 00:00:00+00,,No,20,4,IPS,M5,Crystal City,Double,Yes,West,1.75,No,MON - SAT 8AM - 8PM,,,,73.11,,,,,2018/02/23 00:00:00+00,0,2019/05/09 11:43:32+00,2024/10/13 01:01:19+00,2024/10/13 02:10:31+00,38.84331011,-77.05037299,,SPOGL35W,Yes,54026,1,Zone 160,B,7163792
11879282.7261156,7005922.54047222,15,2802,Permanently Removed,QU509N,,Arlington County,500,N QUINCY ST,WILSON BLVD,N GLEBE RD,,Replaced with multispace meter,,1970/01/02 00:00:00+00,2011/12/29 00:00:00+00,No,20,,MacKay,,Virginia Square,Single,,East,,No,,,,,,,,,,1970/01/02 00:00:00+00,0,2019/05/09 11:43:35+00,2024/09/23 10:17:49+00,2024/10/13 02:10:31+00,38.87831802,-77.10763102,,NQUWI5TE,No,25801,1,,,7697950
11888671.5049101,7012022.16049081,16,3232,Active,WI01500N,,Arlington County,1500,WILSON BLVD,N OAK ST,N PIERCE ST,54504 - WI01500N,,INSTALLED 4/9/11,2011/04/09 00:00:00+00,,No,143,2,CALE,CWT-S4-Touch Stealth,Rosslyn,Multi,No,South,1.75,No,MON - SAT 8AM - 8PM,,,,99.95,,,,,2021/09/25 00:00:00+00,199.5,2019/05/09 11:43:45+00,2024/10/13 01:01:19+00,2024/10/13 02:10:31+00,38.89466833,-77.07432229,,NWIOAPIS,Yes,54504,7.1500001,Zone 104,B,8256392
11880930.3770197,7007557.01062848,17,2332,Active,LI803N,LI805N,Arlington County,800,N LINCOLN ST,WILSON BLVD,9th ST N,54692 - LI803N,,INSTALLED IPS 1/5/17,2017/01/05 00:00:00+00,,No,20,2,IPS,M5,Virginia Square,Double,Yes,East,1.75,No,MON - SAT 8AM - 8PM,,,,92.92,,,,,2020/02/24 00:00:00+00,0,2019/05/09 11:43:24+00,2024/10/13 01:01:19+00,2024/10/13 02:10:31+00,38.88273657,-77.10175654,,NLIWI9TE,Yes,54692,1,Zone 130,B,8486506
11885534.9819837,7010401.62993923,18,819,Active,74N,,Arlington County,2100,CLARENDON BLVD,CLARENDON BLVD,15th ST N,54471 - 74N,G1 Level,"INSTALLED IPS 2/6/18; INSTALL DATE- UNKNOWN
Performance Parking No",2018/02/06 00:00:00+00,,No,20,4,IPS,M5,Courthouse,Single,Yes,North,1.75,No,MON - FRI 8AM - 5PM,,,,98.34,,,,,2020/11/14 00:00:00+00,0,2019/05/09 11:42:46+00,2024/10/13 01:01:19+00,2024/10/13 02:10:31+00,38.89035254,-77.08542889,,BOZG,No,54471,1,Zone 115,,8914611
11882266.5026283,7009292.31555681,19,1919,Active,HU01201N,,Arlington County,1100,N HUDSON ST,WILSON BLVD,13th ST N,54242 - HU01201N,,INSTALLED 8/10/15,2015/08/10 00:00:00+00,,No,105,2,CALE,CWT,Clarendon,Multi,No,East,1.75,No,MON - SAT 8AM - 8PM,,,,43.85,,,,,2015/08/10 00:00:00+00,28.25,2019/05/09 11:43:13+00,2024/10/13 01:01:19+00,2024/10/13 02:10:31+00,38.88744473,-77.09697023,,NHUWI13E,Yes,54242,5.3000002,Zone 128,B,9168376
11893830.4896709,7000683.37837839,20,1730,Active,FE01103S,,Arlington County,1100,S FERN ST,ARMY NAVY DR,12th ST S,54349 - FE01103S,"There are two Multi-Meters ID: FE01101S, FE01103S in this Parallet Parking 11/19/22",INSTALLED 9/16/09,2009/09/16 00:00:00+00,,No,192,12,CALE,CWT-S4-Touch Stealth,Pentagon City,Multi,No,East,1.50,No,MON - FRI 8AM - 8PM,,,,99.85,1199,,S FERN ST,,2020/12/21 00:00:00+00,116.12,2019/05/09 11:43:08+00,2024/10/13 01:01:19+00,2024/10/13 02:10:31+00,38.86331747,-77.05682468,,SFEAR12E,Yes,54349,9.6000004,Zone 146,A,9909637
11885416.1951478,6992511.35075922,21,2756,Permanently Removed,QU2702S,,Arlington County,2700,S QUINCY ST,S ARLINGTON MILL DR,CAMPBELL AVE,,28 TO CAMPBELL,,1970/01/02 00:00:00+00,2021/10/19 00:00:00+00,No,20,,POM,,Shirlington,Single,,West,,No,,,,,,,,,,1970/01/02 00:00:00+00,0,2019/05/09 11:43:34+00,2024/09/23 10:17:49+00,2024/10/13 02:10:31+00,38.84124119,-77.08681369,,,No,2202,1,,,10351137
11864077.3982586,7008132.8004874,22,3197,Active,WES1906N,WES1904N,Arlington County,1900,N WESTMORELAND ST,LANGSTON BLVD,N VAN BUREN ST,54599 - WES1906N,CONVERTED TO IPS 6-22-17,,1970/01/02 00:00:00+00,,No,20,12,IPS,M5,East Falls Church,Double,Yes,West,0.75,No,MON - FRI 8AM - 8PM,,,,95.08,1929,,N WESTMORELAND ST,,2020/09/01 00:00:00+00,0,2019/05/09 11:43:45+00,2024/10/13 01:01:20+00,2024/10/13 02:10:31+00,38.88500722,-77.16092387,,NWELAVAW,No,54599,1,,,10883352
11894112.7423872,6999115.45139614,23,1780,Permanently Removed,FE1513S,FE1515S,Arlington County,1500,S FERN ST,15th ST S,18th ST S,,Multi 12/16/15,,1970/01/02 00:00:00+00,2015/12/16 00:00:00+00,No,20,,MacKay,,Crystal City,Double,,East,,No,,,,,,,,,,1970/01/02 00:00:00+00,0,2019/05/09 11:43:09+00,2024/09/23 10:17:49+00,2024/10/13 02:10:31+00,38.85900068,-77.05592016,,,No,54340,1,,,11879732
11894732.9836008,6995408.77377014,24,1451,Permanently Removed,EA2704S,,Arlington County,2700,S EADS ST,26th RD S,FORT SCOTT DR,,,10/28/17 CONVERTED TO CALE,1970/01/02 00:00:00+00,1970/01/02 00:00:00+00,No,20,,MacKay,,Crystal City,Single,,West,,No,,,,,,,,,,1970/01/02 00:00:00+00,0,2019/05/09 11:43:01+00,2024/09/23 10:19:06+00,2024/10/13 02:10:31+00,38.8487975,-77.05394732,,SEA26FOW,No,54032,1,,,12959354
11884901.2667157,7010467.10946706,25,929,Active,AD1410N,,Arlington County,1400,N ADAMS ST,WILSON BLVD,CLARENDON BLVD,54394 - AD1410N,METER ID UPDATED 2/15/18 PREV ID # AD1510,"INSTALLED IPS 2/9/18, INSTALL DATE- UNKNOWN",2018/02/09 00:00:00+00,,No,20,2,IPS,M5,Courthouse,Single,Yes,West,1.75,No,MON - SAT 8AM - 8PM,,,,97.82,,,,,2019/06/14 00:00:00+00,0,2019/05/09 11:42:49+00,2024/10/13 01:01:20+00,2024/10/13 02:10:31+00,38.89055909,-77.08765151,,NADWICLW,Yes,54394,1,Zone 116,A,13421708
11884863.0256505,6991461.97392097,26,757,Permanently Removed,314223S,314221S,Arlington County,4200,31st ST S,S RANDOLPH ST,S ABINGDON ST,,,Converted to Mutlispace 5/12/2020,1970/01/02 00:00:00+00,,No,20,12,IPS-M5,,Shirlington,Double,,South,1.50,No,MON - FRI 8AM - 8PM,,,,,,,,,1970/01/02 00:00:00+00,0,2019/05/09 11:42:44+00,2024/09/23 10:17:49+00,2024/10/13 02:10:31+00,38.83838355,-77.08881221,,S31RAABS,No,54024,1,,,13511331
11886532.7769041,7010171.82199989,27,241,Permanently Removed,141904N,,Arlington County,1900,14th ST N,N TAFT ST,N TROY ST,,"CONVERTED TO MULTISPACE 10/24/15; sticker is falling off; EAST TO SOUTH",,1970/01/02 00:00:00+00,2015/10/24 00:00:00+00,No,20,,MacKay,,Courthouse,Single,,South,,No,,,,,,,,,,1970/01/02 00:00:00+00,0,2019/05/09 11:42:30+00,2024/09/23 10:17:49+00,2024/10/13 02:10:31+00,38.88967936,-77.08193624,,N14TATRS,No,54435,1,,,13597043
11881146.9431876,7007772.83762464,28,2206,Permanently Removed,KA803N,KA0801N,Arlington County,900,N KANSAS ST,WILSON BLVD,FAIRFAX DR,,Temp Rem 10/7/14,,1970/01/02 00:00:00+00,2021/10/19 00:00:00+00,No,20,,Duncan,,Virginia Square,Double,,East,,No,,,,,,,,,,1970/01/02 00:00:00+00,0,2019/05/09 11:43:21+00,2024/09/23 10:17:49+00,2024/10/13 02:10:31+00,38.88332004,-77.1009843,,,No,54229,1,,,16370516
11888027.3319859,7011446.25383423,29,2388,Active,PI01600N,,Arlington County,1600,N PIERCE ST,CLARENDON BLVD,16th RD N,54532 - PI01600N,DATE ENTERED ON DATABASE 9/22/16,INSTALLED UNKNOWN,2016/09/22 00:00:00+00,,No,111,12,CALE,CWT,Rosslyn,Multi,No,West,1.50,No,MON - FRI 8AM - 8PM,,,,99.46,,,,,2016/09/22 00:00:00+00,3.25,2019/05/09 11:43:25+00,2024/10/13 01:01:20+00,2024/10/13 02:10:31+00,38.89311468,-77.07661669,,NPICL16W,Yes,54532,5.5500002,Zone 106,B,16510646
11879655.6023383,7006379.59434815,30,2418,Active,PO603N,PO601N,Arlington County,600,N POLLARD ST,WILSON BLVD,6th ST N,54178 - PO603N,"9 TO 6, SOUTH TO EAST","INSTALLED IPS 2/9/18, INSTALLED-UNKNOWN",2018/02/09 00:00:00+00,,No,20,4,IPS,M5,Virginia Square,Double,Yes,East,1.75,No,MON - SAT 8AM - 8PM,,,,95.63,,,,,2018/02/09 00:00:00+00,0,2019/05/09 11:43:26+00,2024/10/13 01:01:20+00,2024/10/13 02:10:31+00,38.87955729,-77.106297,,NPOWI6TE,Yes,54178,1,Zone 139,B,17738609
11895274.9326481,6996871.82760257,31,1259,Permanently Removed,CLA2309S,,Arlington County,2300,S CLARK ST,23rd ST S,26th ST S,,MULTI 12/16/15,,1970/01/02 00:00:00+00,2015/12/16 00:00:00+00,No,20,,MacKay,,Crystal City,Single,,East,,No,,,,,,,,,,1970/01/02 00:00:00+00,0,2019/05/09 11:42:57+00,2024/09/23 10:17:49+00,2024/10/13 02:10:31+00,38.85279074,-77.05196361,,SCL2326E,No,54060,1,,,18831154
11883544.9524992,6999639.32239564,32,3426,Active,CO3402S,,Arlington County,3500,COLUMBIA PIKE,S MONROE ST,S LINCOLN ST,54678 - CO3402S,,INSTALLED 6/24/17,2017/06/24 00:00:00+00,,No,20,2,IPS,M5,Columbia Pike,Single,Yes,South,1.75,No,MON - SAT 8AM - 8PM,,,,58.16,3506,,COLUMBIA PIKE,,2020/08/07 00:00:00+00,0,2019/05/09 11:43:50+00,2024/10/13 01:01:20+00,2024/10/13 02:10:31+00,38.86088948,-77.09299911,,,No,54678,1,,,19639356
11880884.2275057,7007558.24061289,33,2338,Permanently Removed,LI812N,,Arlington County,800,N LINCOLN ST,WILSON BLVD,FAIRFAX DR,,,PERM REMOVED 09/29/2016,1970/01/02 00:00:00+00,2016/09/29 00:00:00+00,No,20,,MacKay,,Virginia Square,Double,,West,,No,,,,,,,,,,1970/01/02 00:00:00+00,0,2019/05/09 11:43:24+00,2024/09/23 10:17:49+00,2024/10/13 02:10:31+00,38.88274188,-77.10191858,,,No,54199,1,,,19739248
11893099.3838496,6999531.05391139,34,2006,Active,HA01501S,,Arlington County,1500,S HAYES ST,15th ST S,S FERN ST,54363 - HA01501S,"There are two Multi-Meters ID: HA01501S, HA01503S in this Parallet Parking 11/19/22",INSTALLED 05/10/16,2016/05/10 00:00:00+00,,No,150.8,12,CALE,CWT,Pentagon City,Multi,No,North,1.50,No,MON - FRI 8AM - 8PM,,,,39.24,,,,,2016/05/10 00:00:00+00,2,2019/05/09 11:43:15+00,2024/10/13 01:01:20+00,2024/10/13 02:10:31+00,38.86018539,-77.05945549,,SHA15FEN,Yes,54363,7.54,Zone 150,B,20800011
11886081.493686,7010620.83192864,35,331,Permanently Removed,152019N,,Arlington County,2000,15th ST N,N COURTHOUSE RD,N TAFT ST,,REMOVED 9/11/15,,1970/01/02 00:00:00+00,1970/01/02 00:00:00+00,No,20,,MacKay,,Courthouse,Single,,North,,No,,,,,,,,,,1970/01/02 00:00:00+00,0,2019/05/09 11:42:32+00,2024/09/23 10:19:06+00,2024/10/13 02:10:31+00,38.8909312,-77.08349718,,N15COTAN,No,54464,1,,,21103836
11885516.9800512,7010448.66954331,36,814,Permanently Removed,6N,,Arlington County,2100,CLARENDON BLVD,CLARENDON BLVD,15th ST N,54471 - 6N,MEZZANINE LEVEL,"INSTALLED IPS 2/7/18, INSTALL DATE- UNKNOWN
Performance Parking No",2018/02/07 00:00:00+00,2023/04/12 00:00:00+00,No,20,4,IPS,M5,Courthouse,Single,Yes,North,1.75,No,MON - FRI 8AM - 5PM,,,,,,,,,2021/03/17 00:00:00+00,0,2019/05/09 11:42:46+00,2023/04/12 08:40:05+00,2024/10/13 02:10:31+00,38.89048244,-77.08548958,,BOZG,No,54471,1,,,21898600
11891929.3612553,7000382.07615948,37,2202,Permanently Removed,JO1339S,,Arlington County,1300,S JOYCE ST,ARMY NAVY DR,15th ST S,,CONVERTED TO MULTISPACE 10/14/15,,1970/01/02 00:00:00+00,2015/10/14 00:00:00+00,No,20,,POM,,Pentagon City,Single,,East,,No,,,,,,,,,,1970/01/02 00:00:00+00,0,2019/05/09 11:43:21+00,2024/09/23 10:17:49+00,2024/10/13 02:10:31+00,38.86257214,-77.06351712,,SJOAR15E,No,54376,1,,,21929025
11882220.0411071,7009332.19933531,38,2141,Permanently Removed,HU1119N,HU1117N,Arlington County,1100,N HUDSON ST,13th ST N,WILSON BLVD,,CONVERTED TO MULTISPACE 10/17/15,,1970/01/02 00:00:00+00,2015/10/17 00:00:00+00,No,20,,Duncan,,Clarendon,Double,,East,,No,,,,,,,,,,1970/01/02 00:00:00+00,0,2019/05/09 11:43:19+00,2024/09/23 10:17:49+00,2024/10/13 02:10:31+00,38.88755618,-77.0971313,,,No,54242,1,,,22205930
11895350.920029,6996367.6448839,39,1246,Permanently Removed,CLA02500S,,Arlington County,2500,S CLARK ST,23rd ST S,26th ST S,,REMOVED TRANSITWAY PROJECT 6/15/15,,1970/01/02 00:00:00+00,1970/01/02 00:00:00+00,No,88,,CALE,,Crystal City,Multi,,West,,No,,,,,0,,,,,1970/01/02 00:00:00+00,0,2019/05/09 11:42:56+00,2024/09/23 10:38:59+00,2024/10/13 02:10:31+00,38.85140326,-77.05172475,,SCL2627W,No,54104,5,,,22588290
11878478.8067916,7007131.10071914,40,2968,Permanently Removed,ST907N,,Arlington County,900,N STAFFORD ST,9th ST N,FAIRFAX DR,,"12/22/18 REMOVED MULTIMETER CONVERSION, NORTH TO EAST","INSTALLED IPS 2/9/18, INSTALLED-UNKNOWN",2018/02/09 00:00:00+00,1970/01/02 00:00:00+00,No,20,2,IPS,,Ballston,Single,,East,1.75,No,MON - SAT 8AM - 8PM,,,,33.78,,,,,2018/02/09 00:00:00+00,0,2019/05/09 11:43:39+00,2024/09/23 10:34:52+00,2024/10/13 02:10:31+00,38.88166947,-77.11039037,,NST9TFAE,No,54120,1,,,22996930
11884612.8755602,7000476.38174514,41,1903,Permanently Removed,HI905S,,Arlington County,900,S HIGHLAND ST,COLUMBIA PIKE,9th ST S,,PERM-REMOVED 4/22/2017,,1970/01/02 00:00:00+00,1970/01/02 00:00:00+00,No,20,,MacKay,,Columbia Pike,Single,,East,,No,,,,,,,,,,1970/01/02 00:00:00+00,0,2019/05/09 11:43:12+00,2024/09/23 10:19:06+00,2024/10/13 02:10:31+00,38.86314257,-77.08920399,,,No,54568,1,,,23256936
11884851.6644527,7008608.33201665,42,1026,Permanently Removed,BA1007N,,Arlington County,1000,N BARTON ST,11th ST N,10th ST N,,,INSTALL DATE- UNKNOWN,1970/01/02 00:00:00+00,1970/01/02 00:00:00+00,No,20,,MacKay,,Courthouse,Single,,East,,No,,,,,,,,,,1970/01/02 00:00:00+00,0,2019/05/09 11:42:51+00,2024/09/23 10:19:06+00,2024/10/13 02:10:31+00,38.88545809,-77.08792621,,,No,54385,1,,,23623818
11889100.9863346,7010389.59617065,43,227,Permanently Removed,141405N,,Arlington County,1400,14th ST N,N NASH ST,N OAK ST,,,CONVERTED TO CALE 3/3/18,1970/01/02 00:00:00+00,1970/01/02 00:00:00+00,No,20,,MacKay,,Rosslyn,Single,,North,,No,,,,,,,,,,1970/01/02 00:00:00+00,0,2019/05/09 11:42:29+00,2024/09/23 10:19:06+00,2024/10/13 02:10:31+00,38.89016797,-77.07290265,,N14OANAN,No,54476,1,,,24049159
11886746.764337,7010501.2186508,44,345,Permanently Removed,15H1818N,151816N,Arlington County,1900,15th ST N,N TAFT ST,N SCOTT ST,,"CONVERTED TO HANDICAP 7/15/15; REMOVED 9/11/15",,1970/01/02 00:00:00+00,1970/01/02 00:00:00+00,Yes,20,,IPS,,Courthouse,Double,,South,,No,,,,,0,,,,,1970/01/02 00:00:00+00,0,2019/05/09 11:42:33+00,2024/09/23 10:27:54+00,2024/10/13 02:10:31+00,38.8905746,-77.08116665,,N15TASCS,No,54466,1,,,24071223
11882915.1873545,7008743.26317723,45,2114,Active,HI1103N,,Arlington County,1100,N HIGHLAND ST,WASHINGTON BLVD,11th ST N,54251 - HI1103N,,INSTALLED 12/27/16,2016/12/27 00:00:00+00,,No,20,2,IPS,M5,Clarendon,Single,Yes,East,1.75,No,MON - SAT 8AM - 8PM,,,,88.46,,,,,2019/06/26 00:00:00+00,0,2019/05/09 11:43:18+00,2024/10/13 01:01:20+00,2024/10/13 02:10:31+00,38.88591011,-77.0947211,,NHIWA11E,Yes,54251,1,Zone 123,A,24274463
11895665.8318007,6998134.75814757,46,543,Permanently Removed,20209S,,Arlington County,200,20th ST S,S BELL ST,CRYSTAL DR,,,PERM REMOVED 06/11/2016,1970/01/02 00:00:00+00,2016/06/11 00:00:00+00,No,20,,POM,,Crystal City,Single,,North,,No,,,,,,,,,,1970/01/02 00:00:00+00,0,2019/05/09 11:42:38+00,2024/09/23 10:17:49+00,2024/10/13 02:10:31+00,38.85624107,-77.05052114,,S20BECRN,No,54078,1,,,24309283
11882261.9612988,7008900.6293323,47,2161,Permanently Removed,IR1103N,,Arlington County,1100,N IRVING ST,WILSON BLVD,13th ST N,,,CONVERTED TO CALE 3/1/18,1970/01/02 00:00:00+00,2018/03/01 00:00:00+00,No,20,,Duncan,,Clarendon,Single,,East,,No,,,,,,1108,,N IRVING ST,,1970/01/02 00:00:00+00,0,2019/05/09 11:43:19+00,2024/09/23 10:17:49+00,2024/10/13 02:10:31+00,38.88636958,-77.09700721,,,No,54239,1,,,25305023
11894695.7513918,6993688.27425839,48,1601,Permanently Removed,EA3057S,,Arlington County,3000,S EADS ST,32nd ST S,S GLEBE RD,,"WEST TO EAST, 5 TO 6",,1970/01/02 00:00:00+00,1970/01/02 00:00:00+00,No,20,,MacKay,,Crystal City,Single,,East,,No,,,,,,,,,,1970/01/02 00:00:00+00,0,2019/05/09 11:43:05+00,2024/09/23 10:19:06+00,2024/10/13 02:10:31+00,38.84407562,-77.05417318,,SEA31GLE,No,54028,1,,,25468879
11888923.5486974,7013024.81432539,49,2537,Permanently Removed,NA1915N,,Arlington County,1900,N NASH ST,KEY BLVD,LANGSTON BLVD,,MULSTISPACE CONVERSION 7/2/15,,1970/01/02 00:00:00+00,1970/01/02 00:00:00+00,No,20,,MacKay,,Rosslyn,Single,,East,,No,,,,,,,,,,1970/01/02 00:00:00+00,0,2019/05/09 11:43:29+00,2024/09/23 10:19:06+00,2024/10/13 02:10:31+00,38.89741026,-77.0733821,,,No,54546,1,,,26208861
11894160.4749033,7001273.30305156,50,990,Permanently Removed,AN0502S,,Arlington County,500,ARMY NAVY DR,S EADS ST,S FERN ST,,6/20/18 PERM REMOVAL,INSTALLED 9/16/09,2009/09/16 00:00:00+00,2018/06/20 00:00:00+00,No,195,,CALE,,Pentagon City,Multi,,South,,No,,,,,,,,,,2009/09/16 00:00:00+00,0,2019/05/09 11:42:50+00,2023/04/28 15:15:21+00,2024/10/13 02:10:31+00,38.8649228,-77.05563333,,SAREAFES,No,54353,9,,,27864288
11885482.1136511,7000115.6350913,51,1523,Permanently Removed,ED1011S,,Arlington County,1000,S EDGEWOOD ST,11th ST S,COLUMBIA PIKE,,,,1970/01/02 00:00:00+00,1970/01/02 00:00:00+00,No,20,,POM,,Columbia Pike,Single,,East,,No,,,,,,,,,,1970/01/02 00:00:00+00,0,2019/05/09 11:43:03+00,2024/09/23 10:19:06+00,2024/10/13 02:10:31+00,38.86211545,-77.08617114,,,No,54577,1,,,28036556
11889036.4313456,7012465.2012714,52,2512,Permanently Removed,NA1711N,,Arlington County,1700,N NASH ST,KEY BLVD,WILSON BLVD,,MISLABLED!,,1970/01/02 00:00:00+00,1970/01/02 00:00:00+00,No,20,,MacKay,,Rosslyn,Single,,South,,No,,,,,,,,,,1970/01/02 00:00:00+00,0,2019/05/09 11:43:28+00,2024/09/23 10:14:15+00,2024/10/13 02:10:31+00,38.89586908,-77.07301608,,,No,35901,1,,,28406697
11886100.2974541,7009735.59813482,53,1172,Active,CH01301N,,Arlington County,1300,N COURTHOUSE RD,14th ST N,13th ST N,54412 - CH01301N,,INSTALLED 9/3/15,2015/09/03 00:00:00+00,,No,74,2,CALE,CWT,Courthouse,Multi,No,East,1.75,No,MON - SAT 8AM - 8PM,,,,23.18,,,,,2015/09/03 00:00:00+00,4.25,2019/05/09 11:42:55+00,2024/10/13 01:01:20+00,2024/10/13 02:10:31+00,38.88850008,-77.08347912,,NCO1413E,Yes,54412,3.7,Zone 112,A,28991212
11882837.2800301,7009497.0812234,54,2122,Permanently Removed,HI1207N,,Arlington County,1200,N HIGHLAND ST,WILSON BLVD,13th ST N,,REMOVED TO INSTALL MULTISPACE METER,,1970/01/02 00:00:00+00,2012/01/06 00:00:00+00,No,20,,MacKay,,Clarendon,Single,,East,,No,,,,,,,,,,1970/01/02 00:00:00+00,0,2019/05/09 11:43:18+00,2024/09/23 10:17:49+00,2024/10/13 02:10:31+00,38.88798293,-77.09495423,,,No,29401,1,,,29997682
11886575.2538533,7010109.30867347,55,2997,Active,TF1302N,,Arlington County,1300,N TAFT ST,14th ST N,13th ST N,54417 - TF1302N,,INSTALLED IPS 10/12/17,2017/10/12 00:00:00+00,,No,20,2,IPS,M5,Courthouse,Single,Yes,West,1.75,No,MON - SAT 8AM - 8PM,,,,96.97,,,,,2021/02/23 00:00:00+00,0,2019/05/09 11:43:40+00,2024/10/13 01:01:20+00,2024/10/13 02:10:31+00,38.88950593,-77.08179042,,NTA1413W,Yes,54417,1,Zone 112,A,30412089
11863674.3055608,7008563.56012456,56,3193,Active,WES02100N,,Arlington County,2100,N WESTMORELAND ST,LANGSTON BLVD,N VAN BUREN ST,54601 - WES02100N,,INSTALLED ON 11/08/2016,2016/11/08 00:00:00+00,,No,63,2,CALE,CWT,East Falls Church,Multi,No,West,1.75,No,MON - SAT 8AM - 8PM,,,,99.73,,,,,2016/11/08 00:00:00+00,4.25,2019/05/09 11:43:45+00,2024/10/13 01:01:20+00,2024/10/13 02:10:31+00,38.88620598,-77.16231775,,NWELAVAW,No,54601,3.1500001,,,31318099
11895987.3662626,6999788.34965664,57,3788,Active,CR1401S,,Arlington County,1400,CRYSTAL DR,15th ST S,12th ST S,,,,2023/07/15 00:00:00+00,,No,18.4,4,IPS,M5,Crystal City,Single,No,East,1.75,No,MON - SAT 8AM - 8PM,1485,,,98.5,1485,,CRYSTAL DR,,,0,2023/06/23 12:27:15+00,2024/10/13 01:01:20+00,2024/10/13 02:10:31+00,38.86076691,-77.04930042,,SCR1512E,Yes,54091,1,Zone 153,A,31859130
11887847.8057701,7011218.74182206,58,2671,Permanently Removed,QE1609N,QE1611N,Arlington County,1600,N QUEEN ST,16th ST N,CLARENDON BLVD,,"15 TO 16, 17 TO CLARENDON",PERM REMOVED CALE CONVERSION 12/29/2016,1970/01/02 00:00:00+00,2016/12/29 00:00:00+00,No,20,,Duncan,,Rosslyn,Double,,East,,No,,,,,,,,,,1970/01/02 00:00:00+00,0,2019/05/09 11:43:32+00,2024/09/23 10:17:49+00,2024/10/13 02:10:31+00,38.89249771,-77.07725976,,NQUCL16E,No,54531,1,,,31874370
11895291.0943612,6998573.6562199,59,417,Permanently Removed,18H400S,,Arlington County,400,18th ST S,S EADS ST,S BELL ST,,TEMP REMOVED CONSTRUCTION 7/17/15,,1970/01/02 00:00:00+00,2021/10/19 00:00:00+00,Yes,20,,IPS,,Crystal City,Single,,South,,No,,,,,0,,,,,1970/01/02 00:00:00+00,0,2019/05/09 11:42:35+00,2024/09/23 10:39:11+00,2024/10/13 02:10:31+00,38.85746226,-77.0518126,,S18BEEAS,No,54093,1,,,32843385
11893009.538885,6999232.78810373,60,2047,Permanently Removed,HA1530S,,Arlington County,1500,S HAYES ST,18th ST S,15th ST S,,,PERM REMOVED 06/18/2016,1970/01/02 00:00:00+00,2016/06/18 00:00:00+00,No,20,,MacKay,,Pentagon City,Single,,West,,No,,,,,,,,,,1970/01/02 00:00:00+00,0,2019/05/09 11:43:16+00,2024/09/23 10:17:49+00,2024/10/13 02:10:31+00,38.8593704,-77.0597874,,SHA1518S,No,54362,1,Zone 13,B,33065320
11887440.1950368,7012747.82636231,61,2709,Permanently Removed,QN1902N,,Arlington County,1900,N QUINN ST,KEY BLVD,LANGSTON BLVD,,,PERM REMOVED 08/13/2016,1970/01/02 00:00:00+00,1970/01/02 00:00:00+00,No,20,,MacKay,,Rosslyn,Single,,West,,No,,,,,,,,,,1970/01/02 00:00:00+00,0,2019/05/09 11:43:33+00,2024/09/23 10:14:15+00,2024/10/13 02:10:31+00,38.89671299,-77.07860851,,NQUKELAW,No,54529,1,,,34332626
11883420.3405437,7008727.40625356,62,1838,Permanently Removed,FI1030N,FI1032N,Arlington County,1000,N FILLMORE ST,10th ST N,11th ST N,,"CONVERTED TO CALE 7/27/15; Temp Rem Cons 8/7/14",Reinstall 11/25/14,1970/01/02 00:00:00+00,1970/01/02 00:00:00+00,No,20,,MacKay,,Clarendon,Double,,West,,No,,,,,,,,,,1970/01/02 00:00:00+00,0,2019/05/09 11:43:11+00,2024/09/23 10:19:06+00,2024/10/13 02:10:31+00,38.88584534,-77.09294752,,,No,54264,1,,,34372338
11894880.4751037,6996974.02392048,63,1421,Permanently Removed,EA2305S,,Arlington County,2300,S EADS ST,23rd ST S,24th ST S,,,PERM REMOVED 09/19/2016,1970/01/02 00:00:00+00,2016/09/17 00:00:00+00,No,20,,POM,,Crystal City,Single,,East,,No,,,,,,,,,,1970/01/02 00:00:00+00,0,2019/05/09 11:43:01+00,2024/09/23 10:17:49+00,2024/10/13 02:10:31+00,38.85308838,-77.0533429,,SEA2324E,No,54045,1,,,34408829
11882579.071885,7008162.73382647,64,34,Permanently Removed,103120N,,Arlington County,3100,10th ST N,N HUDSON ST,N IRVING ST,,,1/22/16 CONSTRUCTION,1970/01/02 00:00:00+00,2016/01/22 00:00:00+00,No,20,,MacKay,,Clarendon,Single,,South,,No,,,,,,,,,,1970/01/02 00:00:00+00,0,2019/05/09 11:42:24+00,2024/09/23 10:17:49+00,2024/10/13 02:10:31+00,38.88433044,-77.09593295,,N10HIIRS,No,54279,1,,,35544544
11885631.1743766,7006886.95881897,65,2654,Permanently Removed,PD2204N,,Arlington County,2200,N PERSHING DR,ARLINGTON BLVD,S WAYNE ST,,,"CONVERTED TO MULTI METER 5/27/2020, ALLED IPS 2/9/18, INSTALL DATE- UNKNOWN",2018/02/09 00:00:00+00,,No,20,2,IPS-M5,,Lyon Park,Single,,South,1.75,No,MON - SAT 8AM - 8PM,,,,,,,,,2018/02/09 00:00:00+00,0,2019/05/09 11:43:32+00,2023/04/25 09:20:56+00,2024/10/13 02:10:31+00,38.88069926,-77.08528126,,NPEARWAS,No,54618,1,,,36020944
11881898.3606481,7009149.55928065,66,202,Permanently Removed,133200N,,Arlington County,3200,13th ST N,N JACKSON ST,N IRVING ST,,Temp Rem 12/18/2013,,1970/01/02 00:00:00+00,2021/10/19 00:00:00+00,No,20,,MacKay,,Clarendon,Single,,East,,No,,,,,,,,,,1970/01/02 00:00:00+00,0,2019/05/09 11:42:28+00,2024/09/23 10:17:49+00,2024/10/13 02:10:31+00,38.88706825,-77.09827107,,N13IRIVS,No,28502,1,,,36267354
11886184.7500411,7003807.64575189,67,3043,Permanently Removed,UL106S,UL104N,Arlington County,100,S UHLE ST,S WISE ST,WASHINGTON BLVD,,"SAT TO FRI, MISLABELED",CONVERTED TO MULTISPACE METER AREA 4/14/18,1970/01/02 00:00:00+00,2018/04/14 00:00:00+00,No,20,,MacKay,,Sequoia,Double,,West,,No,,,,,,,,,,1970/01/02 00:00:00+00,0,2019/05/09 11:43:41+00,2024/09/23 10:17:49+00,2024/10/13 02:10:31+00,38.87222183,-77.08350378,,,No,54619,1,,,36359715
11894603.4474425,7000975.01624656,68,1612,Permanently Removed,EA912S,,Arlington County,1000,S EADS ST,11th ST S,ARMY NAVY DR,,CONSTRUCTION 3/17/16,,1970/01/02 00:00:00+00,1970/01/02 00:00:00+00,No,20,,MacKay,,Crystal City,Single,,West,,No,,,,,,,,,,1970/01/02 00:00:00+00,0,2019/05/09 11:43:05+00,2024/09/23 10:19:06+00,2024/10/13 02:10:31+00,38.86408474,-77.05409429,,,No,54337,1,,,36646462
11882107.5629856,7008213.47552289,69,44,Permanently Removed,103205N,,Arlington County,3200,10th ST N,N IRVING ST,N IVY ST,,,"PERM REMOVED 09/17/2016, MULTI METER CONVERSION",2016/09/17 00:00:00+00,1970/01/02 00:00:00+00,No,20,,MacKay,,Clarendon,Single,,North,,No,,,,,,,,,,2016/09/17 00:00:00+00,0,2019/05/09 11:42:24+00,2024/09/23 10:19:06+00,2024/10/13 02:10:31+00,38.88448954,-77.09758644,,N10WIIRN,No,54277,1,Zone 6,B,36729943
11894804.9079976,6998571.5220378,70,446,Permanently Removed,180501S,,Arlington County,500,18th ST S,S EADS ST,S FERN ST,54759 - 180501S,FORMERLY 180505S,INSTALLED ON 10/15/2016,2016/10/15 00:00:00+00,2023/12/08 00:00:00+00,No,72,2,CALE,CWT,Crystal City,Multi,No,North,1.75,No,MON - SAT 8AM - 8PM,,,,,505,,18th ST S,,2016/10/15 00:00:00+00,100,2019/05/09 11:42:35+00,2023/12/08 08:16:48+00,2024/10/13 02:10:31+00,38.85747745,-77.05351984,,S18EAFEN,Yes,54759,3.5999999,Zone 13,B,37205359
11885831.5000915,7010371.42954031,71,1176,Active,BOZ02N,,Arlington County,1400,N COURTHOUSE RD,14th ST N,15th ST N,54467 - BOZ02N,FORMERLY CH02102N 8/27/2020,INSTALLED 10/24/10,2010/10/24 00:00:00+00,,No,,4,CALE,CWT-S4-Touch Stealth,Courthouse,Multi,No,East,1.75,No,"MON - FRI 8AM - 8PM, SAT 6AM - 12PM",,,,99.95,,,,,2020/08/27 00:00:00+00,14.5,2019/05/09 11:42:55+00,2024/10/13 01:01:20+00,2024/10/13 02:10:31+00,38.89025707,-77.0843889,,BOZL,Yes,54467,22,Zone 114,L,38076305
11888738.2150785,7012478.81180848,72,2580,Active,OA01800N,,Arlington County,1800,N OAK ST,18th ST N,KEY BLVD,54539 - OA01800N,1/25/17 UPDATED ZONE #,INSTALLED 8/22/15,2015/08/22 00:00:00+00,,No,125,2,CALE,CWT,Rosslyn,Multi,No,West,1.75,No,MON - SAT 8AM - 8PM,,,,69.7,,,,,2015/08/22 00:00:00+00,6.5,2019/05/09 11:43:30+00,2024/10/13 01:01:20+00,2024/10/13 02:10:31+00,38.89591917,-77.07406301,,NOA18KEW,Yes,54539,6.25,Zone 103,B,38251403
11888636.2080647,7011705.80744898,73,403,Permanently Removed,171516N,171514N,Arlington County,1500,17th ST N,WILSON BLVD,N OAK ST,,Temporarily Removed per Permit #PWT1102394,PERM REMOVED DATE UNKNOWN 01/04/2017,2017/01/04 00:00:00+00,2012/01/11 00:00:00+00,No,20,,MacKay,,Rosslyn,Double,,South,,No,,,,,,,,,,2017/01/04 00:00:00+00,0,2019/05/09 11:42:34+00,2023/03/29 21:04:29+00,2024/10/13 02:10:31+00,38.89380132,-77.07446355,,,No,0,1,,,40466388
11885851.4206553,7000368.43511064,74,1221,Permanently Removed,CL1011S,,Arlington County,1000,S CLEVELAND ST,COLUMBIA PIKE,11th ST S,,PERM-REMOVED 4/22/2017,,1970/01/02 00:00:00+00,1970/01/02 00:00:00+00,No,20,,POM,,Columbia Pike,Single,,East,,No,,,,,,,,,,1970/01/02 00:00:00+00,0,2019/05/09 11:42:56+00,2024/09/23 10:19:06+00,2024/10/13 02:10:31+00,38.86279387,-77.08486063,,,No,54579,1,,,40525910
11893520.2288085,6997047.82954714,75,621,Active,23703S,,Arlington County,700,23rd ST S,S GRANT ST,S HAYES ST,54068 - 23703S,,INSTALLED IPS 3/27/18,1970/01/02 00:00:00+00,,No,20,1,IPS,M5,Crystal City,Single,Yes,North,1.75,No,MON - SAT 8AM - 8PM,,,,76.83,727,,23rd ST S,,2021/09/16 00:00:00+00,0,2019/05/09 11:42:40+00,2024/10/13 01:01:20+00,2024/10/13 02:10:31+00,38.85334977,-77.0581147,,S23GRHAN,Yes,54068,1,Zone 158,B,41722187
11884898.9970352,6991488.49388106,76,753,Permanently Removed,314217S,314219S,Arlington County,4200,31st ST S,S RANDOLPH ST,S ABINGDON ST,,,"Converted to Mutlispace 5/12/2020, REINSTALLED 5/4/17, TEMP REMOVED 5/2/17",1970/01/02 00:00:00+00,,No,20,12,IPS-M5,,Shirlington,Double,,South,1.50,No,MON - FRI 8AM - 8PM,,,,,,,,,1970/01/02 00:00:00+00,0,2019/05/09 11:42:44+00,2024/09/23 10:17:49+00,2024/10/13 02:10:31+00,38.83845484,-77.08868451,,S31RAABS,No,54024,1,,,41898950
11894737.220469,6995518.94316922,77,1476,Permanently Removed,EA2730S,EA2728S,Arlington County,2700,S EADS ST,26th RD S,FORT SCOTT DR,,,10/28/17 CONVERTED TO CALE,1970/01/02 00:00:00+00,1970/01/02 00:00:00+00,No,20,,Duncan,,Crystal City,Double,,West,,No,,,,,,,,,,1970/01/02 00:00:00+00,0,2019/05/09 11:43:02+00,2024/09/23 10:19:06+00,2024/10/13 02:10:31+00,38.84909978,-77.05392636,,SEA26FOW,No,54032,1,,,42635249
11884829.7819505,6991441.5681219,78,759,Permanently Removed,314227S,314225S,Arlington County,4200,31st ST S,S RANDOLPH ST,S ABINGDON ST,,,CONVERTED TO MULTISPACE 5/12/2020,1970/01/02 00:00:00+00,,No,20,12,IPS-M5,,Shirlington,Double,,South,1.50,No,MON - FRI 8AM - 8PM,,,,,,,,,1970/01/02 00:00:00+00,0,2019/05/09 11:42:44+00,2024/09/23 10:17:49+00,2024/10/13 02:10:31+00,38.83832893,-77.08893001,,S31RAABS,No,54024,1,,,43008022
11894467.8361652,7000206.48989648,79,3488,Permanently Removed,130500S,,Arlington County,500,13th ST S,S FAIR ST,S ELM ST,,,"TEMP REMOVED CONSTRUCTION 4/22/2020, INSTALLED 3/28/18. Changed to permanently removed status on 6/12/23 due to spaces not coming back with new street design.",2018/03/28 00:00:00+00,,No,120,4,CALE-CWT,CWT-S4-Touch Stealth,Pentagon City,Multi,,South,1.75,No,MON - SAT 8AM - 8PM,,,,,,,,,2018/03/28 00:00:00+00,0,2019/05/09 11:43:52+00,2023/10/11 14:28:16+00,2024/10/13 02:10:31+00,38.86198068,-77.05461299,,S13FAELS,No,54654,6,,,43893545
11880166.3299914,7007812.22566922,80,2560,Active,NE0900N,,Arlington County,900,N NELSON ST,FAIRFAX DR,10th ST N,54189 - NE0900N,,INSTALLED 6/19/12,2012/06/19 00:00:00+00,,No,130,2,CALE,CWT-S4-Touch Stealth,Virginia Square,Multi,No,West,1.75,No,MON - SAT 8AM - 8PM,,,,98.56,,,,,2021/09/15 00:00:00+00,29.25,2019/05/09 11:43:29+00,2024/10/13 01:01:20+00,2024/10/13 02:10:31+00,38.88346916,-77.10442664,,NNEFA10W,Yes,54189,6.5,Zone 135,B,43926463
11881865.4200971,7009113.54262039,81,204,Permanently Removed,133204N,,Arlington County,3200,13th ST N,N JACKSON ST,N IRVING ST,,Temp Rem 12/18/13,,1970/01/02 00:00:00+00,2021/10/19 00:00:00+00,No,20,,MacKay,,Clarendon,Single,,East,,No,,,,,,,,,,1970/01/02 00:00:00+00,0,2019/05/09 11:42:29+00,2024/09/23 10:17:49+00,2024/10/13 02:10:31+00,38.88697075,-77.09838872,,N13IRIVS,No,28502,1,,,44102418
11895925.033054,7000794.09994173,82,25,Permanently Removed,10305S,,Arlington County,300,10th ST S,S BALL ST,,,"CONVERTED TO MULTISPACE 10/10/15; Reinstall 8/27/14; Temp Rem 6/18/14",,1970/01/02 00:00:00+00,2015/10/10 00:00:00+00,No,20,,Duncan,,Crystal City,Single,,North,,No,,,,,,,,,,1970/01/02 00:00:00+00,0,2019/05/09 11:42:23+00,2024/09/23 10:17:49+00,2024/10/13 02:10:31+00,38.86353081,-77.04946349,,S10BANON,No,9601,1,Zone 11,A,44898199
11894102.3418175,6999201.35247105,83,1772,Permanently Removed,FE1505S,FE1507S,Arlington County,1500,S FERN ST,15th ST S,18th ST S,,Multi 12/16/15,,1970/01/02 00:00:00+00,2016/12/15 00:00:00+00,No,20,,MacKay,,Crystal City,Double,,East,,No,,,,,,,,,,1970/01/02 00:00:00+00,0,2019/05/09 11:43:09+00,2024/09/23 10:17:49+00,2024/10/13 02:10:31+00,38.85923696,-77.05595193,,,No,54340,1,,,46689834
11884833.7799741,7008694.59923255,84,1034,Permanently Removed,BA1015N,,Arlington County,1000,N BARTON ST,11th ST N,10th ST N,,,INSTALL DATE- UNKNOWN,1970/01/02 00:00:00+00,1970/01/02 00:00:00+00,No,20,,MacKay,,Courthouse,Single,,East,,No,,,,,,,,,,1970/01/02 00:00:00+00,0,2019/05/09 11:42:51+00,2024/09/23 10:19:06+00,2024/10/13 02:10:31+00,38.88569568,-77.08798437,,,No,54385,1,,,47354348
11882665.7738114,7008607.38877706,85,2125,Permanently Removed,HU1008N,HU1006N,Arlington County,1000,N HUDSON ST,WASHINGTON BLVD,10th ST N,,,PERM REMOVED 09/17/2016,2013/10/31 00:00:00+00,2016/09/17 00:00:00+00,No,20,,MacKay,,Clarendon,Double,,East,,No,,,,,,,,,,2013/10/31 00:00:00+00,0,2019/05/09 11:43:18+00,2023/03/29 21:04:29+00,2024/10/13 02:10:31+00,38.88554756,-77.0956045,,,No,54240,1,,,47468609
11887847.4307709,7011243.92549872,86,2666,Active,QE01601N,,Arlington County,1600,N QUEEN ST,CLARENDON BLVD,16th ST N,54531 - QE01601N,,INSTALLED ON 07/09/2016,2016/07/09 00:00:00+00,,No,222,12,CALE,CWT,Rosslyn,Multi,No,East,1.50,No,MON - FRI 8AM - 8PM,,,,61.62,,,,,2016/07/09 00:00:00+00,5.5,2019/05/09 11:43:32+00,2024/10/13 01:01:20+00,2024/10/13 02:10:31+00,38.89256686,-77.0772597,,NQUCL16E,Yes,54531,11,Zone 109,B,48053680
11878483.6680024,7007111.65620422,87,2967,Permanently Removed,ST905N,,Arlington County,900,N STAFFORD ST,9th ST N,FAIRFAX DR,,"12/22/18 REMOVED MULTIMETER CONVERSION, NORTH TO EAST","INSTALLED IPS 2/9/18, INSTALLED-UNKNOWN",2018/02/09 00:00:00+00,1970/01/02 00:00:00+00,No,20,2,IPS,,Ballston,Single,,East,1.75,No,MON - SAT 8AM - 8PM,,,,33.78,,,,,2018/02/09 00:00:00+00,0,2019/05/09 11:43:39+00,2024/09/23 10:34:38+00,2024/10/13 02:10:31+00,38.88161589,-77.11037433,,NST9TFAE,No,54120,1,,,48150699
11885026.3832634,7000802.66062014,88,877,Permanently Removed,93031S,93033S,Arlington County,3000,9th ST S,S WALTER REED DR,S GARFIELD ST,,CONVERTED TO MULTI-SPACE METERED AREA 4/14/18,INSTALLED 4/1/08,1970/01/02 00:00:00+00,2018/04/14 00:00:00+00,No,20,,MacKay,,Columbia Pike,Double,,North,,No,,,,,,,,,,1970/01/02 00:00:00+00,0,2019/05/09 11:42:48+00,2024/09/23 10:17:49+00,2024/10/13 02:10:31+00,38.86402089,-77.08773431,,S9TWAHIN,No,54588,1,,,48940587
11878700.5287891,7007561.0417884,89,2880,Permanently Removed,RA1008N,RA1006N,Arlington County,1000,N RANDOLPH ST,FAIRFAX DR,11th ST N,,,"CONVERTED TO CALE 3/3/18, INSTALL DATE- UNKNOWN",1970/01/02 00:00:00+00,2018/03/03 00:00:00+00,No,20,,Duncan,,Ballston,Double,,West,,No,,,,,,,,,,1970/01/02 00:00:00+00,0,2019/05/09 11:43:37+00,2024/09/23 10:17:49+00,2024/10/13 02:10:31+00,38.88284062,-77.1095887,,NRAFA11W,No,54117,1,,,50335082
11894403.05972,6999945.10852948,90,3782,Active,EL01303S,,Arlington County,1300,S ELM ST,13th ST S,14th ST S,,,,2023/05/20 00:00:00+00,,No,84,2,CALE,CWT-S4-Touch Stealth,Pentagon City,Multi,No,East,1.75,No,MON - SAT 8AM - 8PM,1300,,,92.8,525,,14th ST S,,,3.25,2023/04/20 09:25:23+00,2024/10/13 01:01:20+00,2024/10/13 02:10:31+00,38.86126588,-77.0548549,,SEL1314E,Yes,54338,4.1999998,Zone 151,A,50340063
11880271.2963169,7012330.95186798,91,2319,Permanently Removed,LH3506N,LH3504N,VDOT,3500,LANGSTON BLVD,N LINCOLN ST,N MONROE ST,,,,1970/01/02 00:00:00+00,1970/01/02 00:00:00+00,No,20,,Duncan,,Langston Blvd,Double,,South,,No,,,,,,,,,,1970/01/02 00:00:00+00,0,2019/05/09 11:43:24+00,2024/09/23 10:19:06+00,2024/10/13 02:10:31+00,38.89587055,-77.10381653,,,No,54608,1,,,52018625
11885740.8201547,7010485.44079523,92,776,Permanently Removed,318N,,Arlington County,,N COURTHOUSE RD,15th ST N,N COURTHOUSE RD,,COURTHOUSE LOT,,1970/01/02 00:00:00+00,1970/01/02 00:00:00+00,Yes,20,,IPS,,Courthouse,Single,,North,,No,,,,,0,,,,,1970/01/02 00:00:00+00,0,2019/05/09 11:42:45+00,2024/09/23 10:28:10+00,2024/10/13 02:10:31+00,38.89057392,-77.08470127,,BOZL,No,40105,1,,,52137989
11895858.6873861,6996674.7308839,93,1311,Active,CR02500S,,Arlington County,2400,CRYSTAL DR,23rd ST S,26th ST S,54064 - CR02500S,FORMERLY CR02400S 6/26/2020,INSTALLED 2/19/09,2009/02/19 00:00:00+00,,No,103.2,2,CALE,CWT-S4-Touch Stealth,Crystal City,Multi,No,West,1.75,No,MON - SAT 8AM - 8PM,2450,,,87.6,2450,,CRYSTAL DR,,2023/07/18 00:00:00+00,2.25,2019/05/09 11:42:58+00,2024/10/13 01:01:21+00,2024/10/13 02:10:31+00,38.85222433,-77.04992497,,SCR2326W,Yes,54064,5,Zone 154,B,53643806
11878932.9023401,7008727.1080258,94,3158,Permanently Removed,WA4000N,WA4002N,Arlington County,4000,WASHINGTON BLVD,N RANDOLPH ST,N QUINCY ST,,3:30 TO 6,CONVERTED TO CALE 3/3/18 from McKAY,1970/01/02 00:00:00+00,2018/03/03 00:00:00+00,No,20,,CALE,,Ballston,Double,,North,,No,,,,,0,,,,,1970/01/02 00:00:00+00,0,2019/05/09 11:43:44+00,2024/09/23 10:31:55+00,2024/10/13 02:10:31+00,38.8860323,-77.10871041,,NWARAQUN,No,54173,1,,,54898972
11887536.5137418,7012337.86261532,95,2703,Permanently Removed,QN1805N,,Arlington County,1800,N QUINN ST,18th ST N,KEY BLVD,,WILSON TO 18,CONVERTED TO CALE  8/22/15,1970/01/02 00:00:00+00,1970/01/02 00:00:00+00,No,20,,MacKay,,Rosslyn,Single,,East,,No,,,,,,,,,,1970/01/02 00:00:00+00,0,2019/05/09 11:43:33+00,2024/09/23 10:14:15+00,2024/10/13 02:10:31+00,38.89558338,-77.07829243,,,No,54528,1,,,56172003
11887532.8720168,7012360.52628389,96,2704,Permanently Removed,QN1807N,,Arlington County,1800,N QUINN ST,18th ST N,KEY BLVD,,WILSON TO 18,CONVERTED TO CALE  8/22/15,1970/01/02 00:00:00+00,1970/01/02 00:00:00+00,No,20,,MacKay,,Rosslyn,Single,,East,,No,,,,,,,,,,1970/01/02 00:00:00+00,0,2019/05/09 11:43:33+00,2024/09/23 10:14:15+00,2024/10/13 02:10:31+00,38.89564576,-77.07830399,,,No,54528,1,,,58098834
11877250.4831328,7006622.23756364,97,1963,Active,GLB0800N,,VDOT,800,N GLEBE RD,9th ST N,WILSON BLVD,54141 - GLB0800N,"6/6/12 ACTIVATED; Installed on 5/12/12 but not yet active due to construction",INSTALLED 6/6/12,2012/06/06 00:00:00+00,,No,60,2,CALE,CWT-S4-Touch Stealth,Ballston,Multi,No,West,1.75,No,"MON - FRI 9AM - 4PM & 7PM - 8PM , SAT 8AM - 8PM",,,,91.71,,,,,2021/06/30 00:00:00+00,3.25,2019/05/09 11:43:14+00,2024/10/13 01:01:21+00,2024/10/13 02:10:31+00,38.8803234,-77.11473178,,NGL9TWIW,No,54141,3,Zone 142,A,58817672
11886031.0662934,7004457.27568623,98,3110,Active,WA2155S,WA2153S,Arlington County,2100,WASHINGTON BLVD,S WALTER REED DR,ARLINGTON BLVD,54622 - WA2155S,SAT TO FRI,"INSTALLED IPS 2/16/18, INSTALL DATE- UNKNOWN",2018/02/16 00:00:00+00,,No,20,12,IPS,M5,Sequoia,Double,Yes,North,0.75,No,MON - FRI 8AM - 8PM,,,,87.6,,,,,2021/03/30 00:00:00+00,0,2019/05/09 11:43:43+00,2024/10/13 01:01:21+00,2024/10/13 02:10:31+00,38.87401185,-77.08400832,,,No,54622,1,,,58838811
11863587.3893961,7008650.62064597,99,3225,Permanently Removed,WES2020N,WES2022N,Arlington County,2000,N WESTMORELAND ST,LANGSTON BLVD,N VAN BUREN ST,,,PERM REMOVAL CALE CONVERSION,1970/01/02 00:00:00+00,2016/11/19 00:00:00+00,No,20,,MacKay,,East Falls Church,Double,,West,,No,,,,,,,,,,1970/01/02 00:00:00+00,0,2019/05/09 11:43:45+00,2024/09/23 10:17:49+00,2024/10/13 02:10:31+00,38.88644847,-77.16261861,,NWELAVAW,No,54601,1,,,60764133
11889039.8749083,7010381.78385031,100,230,Permanently Removed,141411N,,Arlington County,1400,14th ST N,N NASH ST,N OAK ST,,,CONVERTED TO CALE 3/3/18,1970/01/02 00:00:00+00,1970/01/02 00:00:00+00,No,20,,MacKay,,Rosslyn,Single,,North,,No,,,,,,,,,,1970/01/02 00:00:00+00,0,2019/05/09 11:42:29+00,2024/09/23 10:19:07+00,2024/10/13 02:10:31+00,38.89014913,-77.07311776,,N14OANAN,No,54476,1,,,61677298
11879334.4251591,7012502.49876897,101,2416,Active,PO2003N,PO2001N,Arlington County,2000,N POLLARD ST,20th ST N,LANGSTON BLVD,54603 - PO2003N,CONVERTED TO IPS- DATE UNKNOWN,INSTALL DATE- UNKNOWN,2016/12/06 00:00:00+00,,No,20,2,IPS,M5,Langston Blvd,Double,Yes,East,1.75,No,MON - SAT 8AM - 8PM,,,,47.98,,,,,2018/09/20 00:00:00+00,0,2019/05/09 11:43:26+00,2024/10/13 01:01:21+00,2024/10/13 02:10:31+00,38.89638059,-77.10709876,,NPO20LAE,No,54603,1,,,62288714
11882458.5937795,7009031.54048781,102,2128,Permanently Removed,HU1100N,HU1102N,Arlington County,1100,N HUDSON ST,13th ST N,WILSON BLVD,,CONVERTED TO MULTISPACE 10/17/15,,1970/01/02 00:00:00+00,2015/10/17 00:00:00+00,No,20,,POM,,Clarendon,Double,,West,,No,,,,,,,,,,1970/01/02 00:00:00+00,0,2019/05/09 11:43:18+00,2024/09/23 10:17:50+00,2024/10/13 02:10:31+00,38.88672073,-77.09630947,,,No,54241,1,,,62589743
11883698.0237154,6993509.27494448,103,980,Permanently Removed,AM2712S,AM2714S,Arlington County,2700,S ARLINGTON MILL DR,S WALTER REED DR,S TAYLOR ST,,FRI TO SAT,"PERM REM OBSTRUCTION 3/18/19, INSTALLED IPS 2/15/18, INSTALL DATE UNKNOWN",2018/02/15 00:00:00+00,1970/01/02 00:00:00+00,No,20,2,IPS-M5,,Shirlington,Double,,South,1.75,No,MON - SAT 8AM - 8PM,,,,,,,,,2018/02/15 00:00:00+00,0,2019/05/09 11:42:50+00,2024/09/23 10:19:07+00,2024/10/13 02:10:31+00,38.8440534,-77.09279158,,,No,54006,1,,,63120149
11895523.7405495,6995421.44861355,104,1348,Permanently Removed,CR2617S,CR2619S,Arlington County,2600,CRYSTAL DR,POTOMAC AVE,26th ST S,,Temp Rem Construction 2/24/15,,1970/01/02 00:00:00+00,1970/01/02 00:00:00+00,No,20,,POM,,Crystal City,Double,,East,,No,,,,,,,,,,1970/01/02 00:00:00+00,0,2019/05/09 11:42:59+00,2024/09/23 10:19:07+00,2024/10/13 02:10:31+00,38.84879807,-77.05117042,,SCRPO26E,No,54038,1,,,63535209
11886454.6550131,7011137.12814014,105,3310,Permanently Removed,WI2012N,WI2014N,Arlington County,2000,WILSON BLVD,N COURTHOUSE RD,N TROY ST,,Temp Rem 1/27/14,PERM REMOVED 06/16/2015 CALE CONVERSION,1970/01/02 00:00:00+00,2015/06/16 00:00:00+00,No,20,,MacKay,,Courthouse,Double,,South,,No,,,,,,,,,,1970/01/02 00:00:00+00,0,2019/05/09 11:43:48+00,2024/09/23 10:17:50+00,2024/10/13 02:10:31+00,38.89233282,-77.08215829,,NWICOTRS,No,33202,1,,,64652490
11886271.2738182,7011099.30997431,106,3313,Permanently Removed,WI2015N,,Arlington County,2000,WILSON BLVD,N RHODES ST,N COURTHOUSE RD,,Meter replaced with multimeter,,1970/01/02 00:00:00+00,2011/12/13 00:00:00+00,No,20,,MacKay,,Courthouse,Single,,North,,No,,,,,,,,,,1970/01/02 00:00:00+00,0,2019/05/09 11:43:48+00,2024/09/23 10:17:50+00,2024/10/13 02:10:31+00,38.89223677,-77.08280456,,NWIVETRN,No,33201,1,,,65140841
11883449.1925201,7008485.16756481,107,1830,Permanently Removed,FI1014N,FI1012N,Arlington County,1000,N FILLMORE ST,10th ST N,11th ST N,,,,1970/01/02 00:00:00+00,2015/11/16 00:00:00+00,No,20,,POM,,Clarendon,Double,,West,,No,,,,,,,,,,1970/01/02 00:00:00+00,0,2019/05/09 11:43:10+00,2024/09/23 10:17:50+00,2024/10/13 02:10:31+00,38.88517908,-77.09285922,,,No,54264,1,,,66043933
11885332.0968908,6992023.71065839,108,2733,Permanently Removed,QU2900S,QU2902S,Arlington County,2900,S QUINCY ST,CAMPBELL AVE,S RANDOLPH ST,,REMOVED AREA CONVERTED TO MULTISPACE METER 5/2/13,REINSTALLED 8/14/17,2017/08/14 00:00:00+00,2021/11/08 00:00:00+00,No,20,2,IPS,M5,Shirlington,Double,Yes,West,1.75,No,MON - SAT 8AM - 8PM,,,,,,,,,2021/09/09 00:00:00+00,0,2019/05/09 11:43:34+00,2023/03/29 21:04:29+00,2024/10/13 02:10:31+00,38.83990596,-77.08713526,,,No,54019,1,,,67282883
11893704.6175473,6998520.41190381,109,449,Permanently Removed,180612S,,Arlington County,600,18th ST S,S EADS ST,S FERN ST,,,PERM REMOVED 5/1/16,1970/01/02 00:00:00+00,2016/05/01 00:00:00+00,No,20,,MacKay,,Pentagon City,Single,,West,,No,,,,,,,,,,1970/01/02 00:00:00+00,0,2019/05/09 11:42:36+00,2024/09/23 10:17:50+00,2024/10/13 02:10:31+00,38.85738467,-77.05738605,,,No,54362,1,,,68269080
11889665.3851402,7011733.86874457,110,2360,Permanently Removed,LY1611N,,Arlington County,1600,N LYNN ST,WILSON BLVD,FAIRFAX DR,,,,1970/01/02 00:00:00+00,1970/01/02 00:00:00+00,No,20,,MacKay,,Rosslyn,Single,,West,,No,,,,,,,,,,1970/01/02 00:00:00+00,0,2019/05/09 11:43:25+00,2024/09/23 10:19:07+00,2024/10/13 02:10:31+00,38.89383442,-77.07084648,,,No,35501,1,,,68272621
11888479.3113969,7012354.19001047,111,464,Permanently Removed,181511N,,Arlington County,1500,18th ST N,N OAK ST,N QUINN ST,,,,1970/01/02 00:00:00+00,1970/01/02 00:00:00+00,No,20,,Duncan,,Rosslyn,Single,,North,,No,,,,,,,,,,1970/01/02 00:00:00+00,0,2019/05/09 11:42:36+00,2024/09/23 10:14:15+00,2024/10/13 02:10:31+00,38.89558807,-77.07497937,,,No,54511,1,,,69140192
11888776.3121152,7011381.13716656,112,3659,Active,16H1500N,,Arlington County,1500,16th RD N,N OAK ST,N ODE ST,54831 - 16H1500N,,INSTALLED 11/18/19,2019/11/18 00:00:00+00,,Yes,20,12,IPS,M5,Rosslyn,Single,Yes,South,1.50,No,MON - FRI 8AM - 8PM,1503,,,82.35,1503,,16th RD N,,2019/11/18 00:00:00+00,0,2019/10/01 12:37:01+00,2024/10/13 01:01:21+00,2024/10/13 02:10:31+00,38.89290399,-77.07398908,,N16OAODS,Yes,54831,1,Zone 106,B,69264405
11884608.1131026,7010214.53549714,113,1069,Active,BA1408N,BA1406N,Arlington County,1400,N BARTON ST,WILSON BLVD,CLARENDON BLVD,54389 - BA1408N,,"INSTALLED IPS 2/9/18, INSTALL DATE- UNKNOWN",2018/02/09 00:00:00+00,,No,20,2,IPS,M5,Courthouse,Double,Yes,West,1.75,No,MON - SAT 8AM - 8PM,,,,68.9,,,,,2018/02/09 00:00:00+00,10,2019/05/09 11:42:52+00,2024/10/13 01:01:21+00,2024/10/13 02:10:31+00,38.88987805,-77.08869497,,NBAWICLW,Yes,54389,1,Zone 118,B,69405526
11882791.5904889,7009415.20376247,114,2117,Active,HI01102N,,Arlington County,1100,N HIGHLAND ST,WILSON BLVD,N HARTFORD ST,54252 - HI01102N,,INSTALLED 8/9/2017,2017/08/09 00:00:00+00,,No,90,4,CALE,CWT-S4-Touch Stealth,Clarendon,Multi,No,West,1.75,No,MON - SAT 8AM - 8PM,,,,88.15,,,,,2021/08/03 00:00:00+00,5.5,2019/05/09 11:43:18+00,2024/10/13 01:01:21+00,2024/10/13 02:10:31+00,38.88776006,-77.09511913,,NHIWIHAW,Yes,54252,4.5,Zone 122,B,69674539
11894103.8824968,6999197.88561447,115,1774,Permanently Removed,FE1507S,FE1505S,Arlington County,1500,S FERN ST,15th ST S,18th ST S,,Multi 12/16/15,,1970/01/02 00:00:00+00,2015/12/16 00:00:00+00,No,20,,MacKay,,Crystal City,Double,,East,,No,,,,,,,,,,1970/01/02 00:00:00+00,0,2019/05/09 11:43:09+00,2024/09/23 10:17:50+00,2024/10/13 02:10:31+00,38.85922738,-77.05594672,,,No,54340,1,,,70531605
11890375.4588513,7012313.93254507,116,1015,Active,AR01703N,,Arlington County,1700,N ARLINGTON RIDGE RD,WILSON BLVD,19th ST N,54563 - AR01703N,FORMERLY AR01803N 8/11/2020,INSTALLED 10/14/09,2009/10/14 00:00:00+00,,No,151,12,CALE,CWT-S4-Touch Stealth,Rosslyn,Multi,No,East,1.50,No,MON - FRI 8AM - 8PM,,,,99.57,,,,,2020/08/11 00:00:00+00,1,2019/05/09 11:42:51+00,2024/10/13 01:01:21+00,2024/10/13 02:10:31+00,38.89539655,-77.06832019,,NARWI19E,Yes,54563,7.5500002,Zone 100,A,71993338
11878824.7132521,7006629.27626348,117,3823,Active,RA0800N,,Arlington County,800,N RANDOLPH ST,9th ST N,WILSON BLVD,,,,2024/05/23 00:00:00+00,,No,60,2,CALE,CWT-S4-Touch Stealth,Ballston,Multi,No,West,1.75,No,MON - SAT 8AM - 8PM,4075,,,96.97,4075,ARLINGTON,WILSON BLVD,,,0,2024/04/01 08:11:54+00,2024/10/13 01:01:21+00,2024/10/13 02:10:31+00,38.88027737,-77.10920209,,NRA9TWIW,Yes,54855,3,Zone 140,A,74334747
11885352.1837929,7010023.01553898,118,265,Permanently Removed,142203N,,Arlington County,2200,14th ST N,N ADAMS ST,N VEITCH ST,,FRI TO SAT,,1970/01/02 00:00:00+00,1970/01/02 00:00:00+00,No,20,,MacKay,,Courthouse,Single,,North,,No,,,,,,,,,,1970/01/02 00:00:00+00,0,2019/05/09 11:42:30+00,2024/09/23 10:19:07+00,2024/10/13 02:10:31+00,38.88932082,-77.08609153,,N14ADVEN,No,54430,1,,,74561974
11884608.1406616,6993112.4305938,119,3609,Permanently Removed,OALH2724S,OALH2726S,Arlington County,2700,S NELSON ST,S FOUR MILE RUN DR,S NELSON ST,,,"PERM REM CUSTOMER REQUEST 5/24/19, INSTALLED 3/14/19",2019/03/14 00:00:00+00,,Yes,20,4,IPS-M5,,Four Mile Run,Single,Yes,South,1.75,No,MON - SAT 8AM - 8PM,2710,Arlington,,,2700 2798,,S NELSON ST,,,0,2019/05/28 08:52:58+00,2023/03/29 21:04:29+00,2024/10/13 02:10:31+00,38.84292554,-77.08961792,,,No,54766,1,,,74656542
11877215.7863518,7007388.04508714,120,3053,Permanently Removed,VT1005N,VT1005N,Arlington County,1000,N VERMONT ST,FAIRFAX DR,11th ST N,,7/26/18 PERM FOR CAR SHARE,"INSTALLED IPS 2/16/18, INSTALL DATE- UNKNOWN",2018/02/16 00:00:00+00,1970/01/02 00:00:00+00,No,20,2,IPS,,Ballston,Double,,East,1.75,No,NO RESTRICTIONS,,,,33.97,,,,,2018/02/16 00:00:00+00,0,2019/05/09 11:43:41+00,2024/09/23 10:34:50+00,2024/10/13 02:10:31+00,38.8824273,-77.11481306,,NVEFA11E,No,54137,1,,,75975530
11880345.1711691,7008853.51426905,121,2328,Active,LI1202N,LI1204N,Arlington County,1200,N LINCOLN ST,WASHINGTON BLVD,12th RD N,54201 - LI1202N,Performance Parking No,INSTALLED IPS 3/20/18,1970/01/02 00:00:00+00,,No,20,2,IPS,M5,Virginia Square,Double,Yes,West,1.75,No,MON - SAT 8AM - 8PM,,,,99.3,,,,,2018/12/31 00:00:00+00,0,2019/05/09 11:43:24+00,2024/10/13 01:01:21+00,2024/10/13 02:10:31+00,38.88632047,-77.10374282,,NLIWA12W,No,54201,1,Zone 135,,76243215
11879619.6975545,7006960.48623098,122,676,Permanently Removed,93824N,,Arlington County,3800,9th ST N,N POLLARD ST,N OAKLAND ST,,MULTISPACE INSTALLED 8/31/15,,1970/01/02 00:00:00+00,1970/01/02 00:00:00+00,No,20,,Duncan,,Virginia Square,Double,,South,,No,,,,,,,,,,1970/01/02 00:00:00+00,0,2019/05/09 11:42:42+00,2024/09/23 10:19:07+00,2024/10/13 02:10:31+00,38.88115358,-77.10639213,,,No,54211,1,,,77235024
11887820.3501164,7011435.1557593,123,2677,Permanently Removed,QE1621N,QE1623N,Arlington County,1600,N QUEEN ST,16th ST N,CLARENDON BLVD,,"15 TO 16, 17 TO CLARENDON",PERM REMOVED CALE CONVERSION 12/29/2016,1970/01/02 00:00:00+00,2016/12/29 00:00:00+00,No,20,,Duncan,,Rosslyn,Double,,East,,No,,,,,,,,,,1970/01/02 00:00:00+00,0,2019/05/09 11:43:32+00,2024/09/23 10:17:50+00,2024/10/13 02:10:31+00,38.89309302,-77.07734443,,NQUCL16E,No,54531,1,,,77488277
11889629.8543714,7012575.02880764,124,2440,Permanently Removed,LY1722N,,Arlington County,1700,N LYNN ST,WILSON BLVD,N HIGHLAND ST,,,,1970/01/02 00:00:00+00,1970/01/02 00:00:00+00,No,20,,POM,,Rosslyn,Single,,West,,No,,,,,,,,,,1970/01/02 00:00:00+00,0,2019/05/09 11:43:27+00,2024/09/23 10:14:15+00,2024/10/13 02:10:31+00,38.89614526,-77.0709253,,,No,54556,1,,,77596947
11887966.0873577,7012308.99948406,125,175,Permanently Removed,1801603N,,Arlington County,1600,18th ST N,N OAK ST,N QUINN ST,,11/9/18 Temp Rem Construction,INSTALLED 6/12/15,2015/06/12 00:00:00+00,,No,,4,CALE,,Rosslyn,Multi,,North,1.75,No,MON - SAT 8AM - 8PM,,,,6.6,,,,,2015/06/12 00:00:00+00,0,2019/05/09 11:42:28+00,2024/10/13 01:01:21+00,2024/10/13 02:10:31+00,38.89548586,-77.07678486,,N18OAQUN,Yes,54510,6,Zone 1,B,77883120
11886440.9978882,7011134.36994356,126,3245,Active,WI02000N,,Arlington County,2000,WILSON BLVD,N COURTHOUSE RD,N TROY ST,54636 - WI02000N,,"INSTALLED 6/16/15, SWAPPED LOCATIONS WITH WI02002N ON 6/10/21",2015/06/16 00:00:00+00,,No,120,2,CALE,CWT-S4-Touch Stealth,Courthouse,Multi,No,South,1.75,No,MON - SAT 8AM - 8PM,,,,96.97,2004,,WILSON BLVD,,2021/10/06 00:00:00+00,32.5,2019/05/09 11:43:46+00,2024/10/13 01:01:21+00,2024/10/13 02:10:31+00,38.89232583,-77.08220642,,NWICOTRS,Yes,54636,6,Zone 110,A,78724006
11885748.8493381,7010487.6107384,127,775,Active,H317N,,Arlington County,2100,N COURTHOUSE RD,14th ST N,15th ST N,54674 - H317N,,INSTALLED 8/27/19,1970/01/02 00:00:00+00,,Yes,20,4,IPS,M5,Courthouse,Single,Yes,West,1.75,No,"MON - FRI 8AM - 8PM, SAT 6AM - 12PM",,,,95.65,,,,,2018/02/09 00:00:00+00,0,2019/05/09 11:42:44+00,2024/10/13 01:01:21+00,2024/10/13 02:10:31+00,38.89057954,-77.08467295,,BOZL,Yes,54674,1,Zone 114,L,79352988
11879602.1004768,7006787.93801965,128,2410,Active,PO0801N,,Arlington County,800,N POLLARD ST,9th ST N,WILSON BLVD,54180 - PO0801N,Back end angle parking with 1 regular parallel space.,INSTALLED 5/21/11,2011/05/21 00:00:00+00,,No,,4,CALE,CWT-S4-Touch Stealth,Virginia Square,Multi,No,East,1.75,No,MON - SAT 8AM - 8PM,,,,97.85,,,,,2021/08/25 00:00:00+00,5.5,2019/05/09 11:43:26+00,2024/10/13 01:01:21+00,2024/10/13 02:10:31+00,38.88068059,-77.10646314,,NPO9TWIE,Yes,54180,5,Zone 133,B,79668057
11884909.4625655,7000730.81561948,129,867,Permanently Removed,93021S,93019S,Arlington County,3000,9th ST S,S WALTER REED DR,S GARFIELD ST,,CONVERTED TO MULTI-SPACE METERED AREA 4/14/18,INSTALLED 3/28/08,1970/01/02 00:00:00+00,2018/04/14 00:00:00+00,No,20,,MacKay,,Columbia Pike,Double,,North,,No,,,,,,,,,,1970/01/02 00:00:00+00,0,2019/05/09 11:42:47+00,2024/09/23 10:17:50+00,2024/10/13 02:10:31+00,38.86382858,-77.08814877,,S9TWAHIN,No,54588,1,,,81855105
11882984.988068,7008079.76942548,130,1910,Active,HI925N,,Arlington County,900,N HIGHLAND ST,10th ST N,9th RD N,54248 - HI925N,,"INSTALLED IPS 3/20/18, INSTALL DATE- UNKNOWN",1970/01/02 00:00:00+00,,No,20,2,IPS,M5,Clarendon,Single,Yes,East,1.75,No,MON - SAT 8AM - 8PM,900,Arlington,,99.08,,,,,2020/08/20 00:00:00+00,0,2019/05/09 11:43:12+00,2024/10/13 01:01:21+00,2024/10/13 02:10:31+00,38.88408562,-77.09451159,,NHI109TE,Yes,54248,1,Zone 125,B,82610003
11894539.0548548,6995092.45681748,131,1924,Active,FS02801S,,Arlington County,2800,FORT SCOTT DR,S EADS ST,S FERN ST,54035 - FS02801S,,INSTALLED 10/28/17,2017/10/28 00:00:00+00,,No,258,12,CALE,CWT,Crystal City,Multi,No,North,0.75,No,MON - FRI 8AM - 8PM,,,,61.57,,,,,2017/10/28 00:00:00+00,2,2019/05/09 11:43:13+00,2024/10/13 01:01:21+00,2024/10/13 02:10:31+00,38.84793746,-77.05464566,,SFOEAFEN,No,54035,12.9,,,82828734
11888947.2356579,7012826.16577256,132,2547,Permanently Removed,NA1925N,NA1923N,Arlington County,1900,N NASH ST,KEY BLVD,LANGSTON BLVD,,Multispace Conversion 7/2/15,,1970/01/02 00:00:00+00,1970/01/02 00:00:00+00,No,20,,POM,,Rosslyn,Double,,East,,No,,,,,,,,,,1970/01/02 00:00:00+00,0,2019/05/09 11:43:29+00,2024/09/23 10:14:15+00,2024/10/13 02:10:31+00,38.89686388,-77.07330973,,,No,54546,1,,,84750778
11888178.8861447,7011319.4118963,133,373,Permanently Removed,161548N,,Arlington County,1500,16th RD N,N PIERCE ST,N ODE ST,,,9/6/17 CONVERTED TO CALE,1970/01/02 00:00:00+00,1970/01/02 00:00:00+00,No,20,,MacKay,,Rosslyn,Single,,South,,No,,,,,,,,,,1970/01/02 00:00:00+00,0,2019/05/09 11:42:33+00,2024/09/23 10:19:07+00,2024/10/13 02:10:31+00,38.89275999,-77.07609119,,N16PIODS,No,54484,1,,,85020738
11886402.8900248,7004301.00237672,134,3069,Active,WA2108S,WA2110S,Arlington County,2100,WASHINGTON BLVD,S WALTER REED DR,ARLINGTON BLVD,54623 - WA2108S,SAT TO FRI,INSTALLED IPS 4/4/18,1970/01/02 00:00:00+00,,No,20,2,IPS,M5,Sequoia,Double,Yes,South,0.75,No,MON - SAT 8AM - 8PM,,,,90.89,,,,,2021/05/06 00:00:00+00,0,2019/05/09 11:43:42+00,2024/10/13 01:01:21+00,2024/10/13 02:10:31+00,38.87356706,-77.08271092,,,No,54623,1,,,85732837
11880828.3595072,7007409.48369256,135,3276,Active,WI03501N,,Arlington County,3500,WILSON BLVD,N LINCOLN ST,N MONROE ST,54205 - WI03501N,FORMERLY WI03500N 1/13/21,INSTALLED 10/21/09,2009/10/21 00:00:00+00,,No,193,12,CALE,CWT-S4-Touch Stealth,Virginia Square,Multi,No,North,1.50,No,MON - FRI 8AM - 8PM,,,,96.12,,,,,2021/01/13 00:00:00+00,3.25,2019/05/09 11:43:47+00,2024/10/13 01:01:21+00,2024/10/13 02:10:31+00,38.88233581,-77.10212277,,NWILIMON,Yes,54205,9.6499996,Zone 131,B,87742050
11863555.5318482,7008684.6025334,136,3227,Permanently Removed,WES2024N,WES2026N,Arlington County,2000,N WESTMORELAND ST,LANGSTON BLVD,N VAN BUREN ST,,,PERM REMOVAL CALE CONVERSION,1970/01/02 00:00:00+00,2016/11/19 00:00:00+00,No,20,,MacKay,,East Falls Church,Double,,West,,No,,,,,,,,,,1970/01/02 00:00:00+00,0,2019/05/09 11:43:45+00,2024/09/23 10:17:50+00,2024/10/13 02:10:31+00,38.88654304,-77.16272877,,NWELAVAW,No,54601,1,,,87829902
11885536.7798804,7010454.86933406,137,787,Permanently Removed,21N,,Arlington County,2100,CLARENDON BLVD,CLARENDON BLVD,15th ST N,54471 - 21N,MEZZANINE LEVEL,"INSTALLED IPS 2/7/18, INSTALL DATE- UNKNOWN
Performance Parking No",2018/02/07 00:00:00+00,2023/04/12 00:00:00+00,No,20,4,IPS,M5,Courthouse,Single,Yes,North,1.75,No,MON - FRI 8AM - 5PM,,,,,,,,,2021/01/25 00:00:00+00,0,2019/05/09 11:42:45+00,2023/04/12 08:38:09+00,2024/10/13 02:10:31+00,38.89049862,-77.08541969,,BOZG,No,54471,1,,,88518860
11883082.1279656,7009651.24266048,138,1945,Permanently Removed,GA1401N,,Arlington County,1400,N GARFIELD ST,WASHINGTON BLVD,N HIGHLAND ST,,"CONVERTED TO CALE 3/1/18, CONVERTED TO IPS 01/11/2017","CONVERTED TO CALE 3/1/18, INSTALL DATE- UNKOWN",2017/01/11 00:00:00+00,2018/03/01 00:00:00+00,No,20,,IPS,,Clarendon,Single,,East,,No,,,,,,,,,,2017/01/11 00:00:00+00,0,2019/05/09 11:43:13+00,2023/03/29 21:04:29+00,2024/10/13 02:10:31+00,38.88839587,-77.09408584,,,No,54263,1,,,88782166
11884986.6149702,7000774.24565072,139,873,Permanently Removed,93027S,93029S,Arlington County,3000,9th ST S,S WALTER REED DR,S GARFIELD ST,,,INSTALLED 3/28/08,1970/01/02 00:00:00+00,2018/04/14 00:00:00+00,No,20,,MacKay,,Columbia Pike,Double,,North,,No,,,,,,,,,,1970/01/02 00:00:00+00,0,2019/05/09 11:42:47+00,2024/09/23 10:17:50+00,2024/10/13 02:10:31+00,38.86394455,-77.0878755,,S9TWAHIN,No,54588,1,,,91335580
11887081.1475265,7011393.29068556,140,2945,Active,RH1607N,,Arlington County,1700,N RHODES ST,WILSON BLVD,CLARENDON BLVD,54422 - RH1607N,CONVERTED TO IPS METER 12/29/2016,INSTALL DATE- UNKNOWN,2013/12/29 00:00:00+00,,No,20,12,IPS,M5,Rosslyn,Single,Yes,East,1.50,No,MON - FRI 8AM - 8PM,,,,98.01,,,,,2018/11/02 00:00:00+00,0,2019/05/09 11:43:39+00,2024/10/13 01:01:21+00,2024/10/13 02:10:31+00,38.8930095,-77.07994352,,NRHWICLE,Yes,54422,1,Zone 110,B,92697585
11863604.9113426,7008634.69187206,141,3224,Permanently Removed,WES2018N,WES2016N,Arlington County,2000,N WESTMORELAND ST,LANGSTON BLVD,N VAN BUREN ST,,,PERM REMOVAL CALE CONVERSION,1970/01/02 00:00:00+00,2016/11/19 00:00:00+00,No,20,,MacKay,,East Falls Church,Double,,West,,No,,,,,,,,,,1970/01/02 00:00:00+00,0,2019/05/09 11:43:45+00,2024/09/23 10:17:50+00,2024/10/13 02:10:31+00,38.88640404,-77.16255787,,NWELAVAW,No,54601,1,,,92766721
11888696.012407,7012331.42758881,142,457,Active,181504N,,Arlington County,1500,18th ST N,N OAK ST,N PIERCE ST,54512 - 181504N,FRI TO SAT,"INSTALLED IPS 11/1/17, INSTALL DATE UNKNOWN",2017/11/01 00:00:00+00,,No,20,1,IPS,M5,Rosslyn,Single,Yes,South,1.75,No,MON - SAT 8AM - 8PM,,,,96.48,,,,,2024/03/25 00:00:00+00,0,2019/05/09 11:42:36+00,2024/10/13 01:01:21+00,2024/10/13 02:10:31+00,38.89551634,-77.07421932,,N18OAPIS,Yes,54512,1,Zone 103,B,93047216
11878777.291759,7008646.8093019,143,3167,Permanently Removed,WA4018N,WA4016N,Arlington County,4000,WASHINGTON BLVD,N RANDOLPH ST,N QUINCY ST,,3:30 to 6,CONVERTED TO CALE 3/3/18,1970/01/02 00:00:00+00,1970/01/02 00:00:00+00,No,20,,MacKay,,Ballston,Double,,North,,No,,,,,,,,,,1970/01/02 00:00:00+00,0,2019/05/09 11:43:44+00,2024/09/23 10:19:07+00,2024/10/13 02:10:31+00,38.88581832,-77.10926129,,NWARAQUN,No,54173,1,,,93942676
11895360.2569526,6996762.45314939,144,1244,Permanently Removed,CLA02401S,,Arlington County,2300,S CLARK ST,23rd ST S,26th ST S,54060 -,,INSTALLED ON 6/18/16,2016/06/18 00:00:00+00,2022/09/24 00:00:00+00,No,65,2,CALE,CWT,Crystal City,Multi,No,East,1.75,No,MON - SAT 8AM - 8PM,,,,,,,,,2016/06/18 00:00:00+00,0,2019/05/09 11:42:56+00,2023/10/04 07:26:52+00,2024/10/13 02:10:31+00,38.85248676,-77.0516701,,SCL2326E,No,54060,3,,,94209564
11882777.7831018,7009579.81760648,145,1911,Active,HIH1200N,,Arlington County,1200,N HIGHLAND ST,13th ST N,N HARTFORD ST,54255 - HIH1200N,,REINSTALLED 09/30/2016,2016/09/30 00:00:00+00,,Yes,20,4,IPS,M5,Clarendon,Single,Yes,West,1.75,No,MON - SAT 8AM - 8PM,,,,53.65,,,,,2018/01/30 00:00:00+00,0,2019/05/09 11:43:12+00,2024/10/13 01:01:22+00,2024/10/13 02:10:31+00,38.88821257,-77.09515878,,NHI13HAW,Yes,54255,1,Zone 122,B,94565232
11886385.3100075,7010193.06047447,146,255,Permanently Removed,142007N,,Arlington County,2000,14th ST N,N TAFT ST,N TROY ST,,"2 TO 1;EAST TO NORTH",,1970/01/02 00:00:00+00,2021/10/19 00:00:00+00,No,20,,MacKay,,Courthouse,Single,,North,,No,,,,,,,,,,1970/01/02 00:00:00+00,0,2019/05/09 11:42:30+00,2024/09/23 10:17:50+00,2024/10/13 02:10:31+00,38.88974392,-77.08245311,,N14TATRN,No,0,1,,,96924143
11893992.6875092,6998572.01449089,147,512,Permanently Removed,18605S,,Arlington County,600,18th ST S,S EADS ST,S FERN ST,,,PERM REMOVED 06/11/2016,1970/01/02 00:00:00+00,2016/06/11 00:00:00+00,No,20,,MacKay,,Pentagon City,Double,,East,,No,,,,,,,,,,1970/01/02 00:00:00+00,0,2019/05/09 11:42:37+00,2024/09/23 10:17:50+00,2024/10/13 02:10:31+00,38.8575139,-77.05637172,,,No,54363,1,,,99036062
11879507.7955473,7007309.04622939,148,2422,Permanently Removed,PO906N,,Arlington County,900,N POLLARD ST,9th ST N,FAIRFAX DR,,,"CONVERTED TO MULTISPACE 12/18/19,  INSTALLED, IPS 2/15/18, INSTALL DATE UNKNOWN",2018/02/15 00:00:00+00,,No,20,1,IPS,,Virginia Square,Single,,West,1.75,No,MON - SAT 8AM - 8PM,,,,33.4,,,,,2018/02/15 00:00:00+00,0,2019/05/09 11:43:26+00,2024/10/13 01:01:22+00,2024/10/13 02:10:31+00,38.88211519,-77.1067666,,NPO9TFAW,No,54182,1,,,99385742
11877638.3511235,7007244.60114831,149,3568,Active,FAH4302N,,Arlington County,4300,FAIRFAX DR,N TAYLOR ST,N UTAH ST,54326 - FAH4302N,,"CONVERTED TO HC 1/16/2020, INSTALLED 10/11/18",2018/10/11 00:00:00+00,,Yes,20,4,IPS,M5,Ballston,Single,Yes,South,1.75,No,MON - SAT 8AM - 8PM,,,,99.85,,,,,2020/02/20 00:00:00+00,0,2019/05/09 11:43:53+00,2024/10/13 01:01:22+00,2024/10/13 02:10:31+00,38.88201597,-77.11333642,,NFATAUTS,Yes,54326,1,Zone 143,B,99525834
11894231.7713486,6998216.3793754,150,1744,Active,FE01801S,,Arlington County,1800,S FERN ST,18th ST S,19th ST S,54058 - FE01801S,,INSTALLED 4/2/11,2011/04/02 00:00:00+00,,No,159,12,CALE,CWT-S4-Touch Stealth,Crystal City,Multi,No,East,1.50,No,MON - FRI 8AM - 8PM,,,,86.26,,,,,2021/06/28 00:00:00+00,2,2019/05/09 11:43:08+00,2024/10/13 01:01:22+00,2024/10/13 02:10:31+00,38.85652721,-77.05555189,,SFE1819E,Yes,54058,7.9499998,Zone 155,A,99684690
11885727.5518086,7010713.99578431,151,2819,Permanently Removed,ULH1521N,UL1519N,Arlington County,1500,N UHLE ST,15th ST N,CLARENDON BLVD,54410 - ULH1521N,,,1970/01/02 00:00:00+00,,Yes,20,4,IPS,M5,Courthouse,Double,Yes,East,1.75,No,MON - SAT 8AM - 8PM,,,,60.93,,,,,2020/11/16 00:00:00+00,0,2019/05/09 11:43:36+00,2024/10/13 01:01:22+00,2024/10/13 02:10:31+00,38.89120196,-77.0847355,,NUH15CLE,Yes,54410,1,Zone 4,B,99964547
11884922.8798615,7000685.7500928,152,868,Permanently Removed,93022S,93020S,Arlington County,3000,9th ST S,S GREENBRIER ST,S GREENBRIER ST,,CONVERTED TO MULTI-SPACE METERED AREA 4/14/18,INSTALLED 2/26/08,1970/01/02 00:00:00+00,2018/04/14 00:00:00+00,No,20,,MacKay,,Columbia Pike,Double,,South,,No,,,,,,,,,,1970/01/02 00:00:00+00,0,2019/05/09 11:42:47+00,2024/09/23 10:17:50+00,2024/10/13 02:10:31+00,38.86370429,-77.08810409,,S9TWAADS,No,54589,1,,,100565468
11894756.0960874,6995183.42809223,153,1480,Permanently Removed,EA2738S,EA2736S,Arlington County,2700,S EADS ST,26th RD S,FORT SCOTT DR,,TEMP REMOVED 8-18-2017,"10/28/17 CONVERTED TO CALE, REINSTALLED 10/9/17",1970/01/02 00:00:00+00,1970/01/02 00:00:00+00,No,20,,Duncan,,Crystal City,Double,,West,,No,,,,,,,,,,1970/01/02 00:00:00+00,0,2019/05/09 11:43:02+00,2024/09/23 10:19:07+00,2024/10/13 02:10:31+00,38.84817783,-77.05387864,,SEA26FOW,No,54032,1,,,100687150
11877521.3418431,7007496.37820381,154,2820,Active,UT01001N,,Arlington County,1000,N UTAH ST,FAIRFAX DR,11th ST N,54134 - UT01001N,,INSTALLED 10/5/10,2010/10/05 00:00:00+00,,No,220,2,CALE,CWT-S4-Touch Stealth,Ballston,Multi,No,East,1.75,No,MON - SAT 8AM - 8PM,,,,98.23,,,,,2021/03/19 00:00:00+00,5.5,2019/05/09 11:43:36+00,2024/10/13 01:01:22+00,2024/10/13 02:10:31+00,38.88271206,-77.11373405,,NUTFA11E,Yes,54134,11,Zone 143,B,100820750
11895490.4925845,6995873.43885131,155,658,Permanently Removed,26212S,26214S,Arlington County,200,26th ST S,S CLARK ST,CRYSTAL DR,,,PERM REMOVED 08/13/2016,1970/01/02 00:00:00+00,2016/08/13 00:00:00+00,No,20,,Duncan,,Crystal City,Double,,South,,No,,,,,,,,,,1970/01/02 00:00:00+00,0,2019/05/09 11:42:41+00,2024/09/23 10:17:50+00,2024/10/13 02:10:31+00,38.85004041,-77.0512621,,S26CLCRS,No,54039,1,,,101368582
11880591.6929858,7012449.09073931,156,3451,Active,LA3400N,LH3402N,VDOT,3400,LANGSTON BLVD,N LINCOLN ST,N KENMORE ST,54609 - LA3400N,,,2018/01/03 00:00:00+00,,No,20,4,IPS,M5,Langston Blvd,Double,Yes,South,1.75,No,MON - SAT 8AM - 8PM,,,,40.05,,,,,2018/10/16 00:00:00+00,0,2019/05/09 11:43:51+00,2024/10/13 01:01:22+00,2024/10/13 02:10:31+00,38.89618151,-77.10268461,,NLALIKES,No,54609,1,,,101827366
11886496.4413469,7004263.73703131,157,3072,Permanently Removed,WA2111S,,Arlington County,2100,S WASHINGTON BLVD,8th ST S,6th ST S,,1 TO 2,AREA CONVERTED TO MULTI METER 4/4/18,1970/01/02 00:00:00+00,1970/01/02 00:00:00+00,No,20,,Duncan,,Sequoia,Single,,East,,No,,,,,,,,,,1970/01/02 00:00:00+00,0,2019/05/09 11:43:42+00,2024/09/23 10:19:07+00,2024/10/13 02:10:31+00,38.87346078,-77.08238439,,,No,54621,1,,,102461278
11894814.6474795,6994887.97428681,158,1481,Permanently Removed,EA2902S,,Arlington County,2900,S EADS ST,31st ST S,FORT SCOTT DR,,,PERM REMOVED CONTRUCTION SITE 12/03/2016,1970/01/02 00:00:00+00,2016/12/03 00:00:00+00,No,20,,MacKay,,Crystal City,Single,,West,,No,,,,,,,,,,1970/01/02 00:00:00+00,0,2019/05/09 11:43:02+00,2024/09/23 10:17:50+00,2024/10/13 02:10:31+00,38.84736416,-77.05368943,,,No,54030,1,,,102585908
11894823.0004811,6994172.72637348,159,1582,Permanently Removed,EA3019S,,Arlington County,3000,S EADS ST,32nd ST S,S GLEBE RD,,Construction 3/25/16,,1970/01/02 00:00:00+00,2016/03/25 00:00:00+00,No,20,,MacKay,,Crystal City,Single,,East,,No,,,,,,,,,,1970/01/02 00:00:00+00,0,2019/05/09 11:43:04+00,2024/09/23 10:17:50+00,2024/10/13 02:10:31+00,38.84540014,-77.05369966,,SEA31GLE,No,54028,1,,,102663578
11894569.4599777,7000360.71498172,160,3644,Permanently Removed,EAH1200S,,Arlington County,1200,S EADS ST,12th ST S,13th ST S,,,"REMOVED FOR METRO  1/17/2020,  INSTALLED F",2019/07/25 00:00:00+00,2020/01/17 00:00:00+00,Yes,20,4,IPS-M5,,Pentagon City,Single,,West,1.75,No,MON - SAT 8AM - 8PM,1200,Arlington,,,1200 1298,,S EADS ST,,,0,2019/07/24 09:21:10+00,2023/07/03 14:23:58+00,2024/10/13 02:10:31+00,38.8623997,-77.05424761,,SEA1213W,No,54815,1,,,103331572
11880046.371898,7012515.63424139,161,2478,Active,MR2100N,MR2100N,Arlington County,2100,N MONROE ST,LANGSTON BLVD,21st AVE N,54611 - MR2100N,,INSTALLED 1/27/17,2017/01/27 00:00:00+00,,No,20,4,IPS,M5,Langston Blvd,Double,Yes,West,1.75,No,MON - SAT 8AM - 8PM,,,,91.79,,,,,2021/10/11 00:00:00+00,475,2019/05/09 11:43:28+00,2024/10/13 01:01:22+00,2024/10/13 02:10:31+00,38.89638697,-77.10459686,,NMOLA21W,No,54611,1,,,103566466
11881626.9149967,7008322.26139456,162,58,Permanently Removed,103227N,,Arlington County,3200,10th ST N,WILSON BLVD,FAIRFAX DR,,,PERM REMOVAL 11/19/2016 CALE CONVERSION,1970/01/02 00:00:00+00,2016/11/19 00:00:00+00,No,20,,MacKay,,Clarendon,Single,,North,,No,,,,,,,,,,1970/01/02 00:00:00+00,0,2019/05/09 11:42:24+00,2024/09/23 10:17:50+00,2024/10/13 02:10:31+00,38.88480835,-77.09926893,,N10FAWIN,No,54276,1,,,104302730
11878319.6138685,7007399.83180898,163,1680,Active,FA04201N,,Arlington County,4200,FAIRFAX DR,N STAFFORD ST,N STUART ST,54168 - FA04201N,,INSTALLED 5/21/11,2011/05/21 00:00:00+00,,No,75,2,CALE,CWT-S4-Touch Stealth,Ballston,Multi,No,North,1.75,No,MON - SAT 8AM - 8PM,4205,Arlington,,87.19,4205,ARLINGTON,FAIRFAX DR,,2021/06/25 00:00:00+00,0,2019/05/09 11:43:07+00,2024/10/13 01:01:22+00,2024/10/13 02:10:31+00,38.88241387,-77.11093524,,NFASTSTN,Yes,54168,3.75,Zone 136,A,104792196
11885436.1705016,7000101.79063082,164,1527,Permanently Removed,ED1016S,,Arlington County,1000,S EDGEWOOD ST,11th ST S,COLUMBIA PIKE,,,,1970/01/02 00:00:00+00,1970/01/02 00:00:00+00,No,20,,POM,,Columbia Pike,Single,,West,,No,,,,,,,,,,1970/01/02 00:00:00+00,0,2019/05/09 11:43:03+00,2024/09/23 10:19:07+00,2024/10/13 02:10:31+00,38.86207938,-77.08633321,,,No,54576,1,,,106815912
11882067.1693656,7009318.03564973,165,198,Permanently Removed,133130N,,Arlington County,3100,13th ST N,N IRVING ST,N HUDSON ST,,SAT TO FRI,,1970/01/02 00:00:00+00,2021/10/19 00:00:00+00,No,20,,MacKay,,Clarendon,Single,,East,,No,,,,,,,,,,1970/01/02 00:00:00+00,0,2019/05/09 11:42:28+00,2024/09/23 10:17:50+00,2024/10/13 02:10:31+00,38.8875237,-77.09766906,,N13HUIRS,No,54319,1,,,109019967
11888725.9336071,7012565.30572997,166,2601,Permanently Removed,OA1810N,OA1808N,Arlington County,1800,N OAK ST,18th ST N,KEY BLVD,,WILSON TO 18,CONVERTED TO CALE 8/22/15,1970/01/02 00:00:00+00,1970/01/02 00:00:00+00,No,20,,Duncan,,Rosslyn,Double,,West,,No,,,,,,,,,,1970/01/02 00:00:00+00,0,2019/05/09 11:43:30+00,2024/09/23 10:14:15+00,2024/10/13 02:10:31+00,38.89615715,-77.07410144,,,No,54539,1,,,109520054
11894522.0174873,6995090.52112581,167,1925,Permanently Removed,FS2815S,,Arlington County,2800,FORT SCOTT DR,S EADS ST,S FERN ST,,,10/28/17 CONVERTED TO CALE,1970/01/02 00:00:00+00,1970/01/02 00:00:00+00,No,20,,MacKay,,Crystal City,Single,,North,,No,,,,,,,,,,1970/01/02 00:00:00+00,0,2019/05/09 11:43:13+00,2024/09/23 10:19:07+00,2024/10/13 02:10:31+00,38.84793289,-77.05470558,,,No,54035,1,,,109751371
11878621.9311773,7007435.77432239,168,1679,Active,FA04101N,,Arlington County,4100,FAIRFAX DR,N STAFFORD ST,N RANDOLPH ST,54169 - FA04101N,,INSTALLED 5/21/11,2011/05/21 00:00:00+00,,No,104,2,CALE,CWT-S4-Touch Stealth,Ballston,Multi,No,North,1.75,No,MON - SAT 8AM - 8PM,,,,97.57,,,,,2021/06/25 00:00:00+00,3.25,2019/05/09 11:43:07+00,2024/10/13 01:01:22+00,2024/10/13 02:10:31+00,38.88249998,-77.10987144,,NFASTRAN,Yes,54169,5.1999998,Zone 136,B,110884947
11879528.9805443,7007068.70320614,169,2421,Active,POH900N,,Arlington County,900,N POLLARD ST,9th ST N,FAIRFAX DR,54787 - POH900N,CONVERTED HC TO REGULAR PARKING 5/15/19,"INSTALLED IPS 2/15/18, INSTALL DATE UNKNOWN",2018/02/15 00:00:00+00,,Yes,20,12,IPS,M5,Virginia Square,Single,Yes,West,1.50,No,MON - FRI 8AM - 8PM,,,,68.54,,,,,2020/02/11 00:00:00+00,0,2019/05/09 11:43:26+00,2024/10/13 01:01:22+00,2024/10/13 02:10:31+00,38.88145446,-77.106705,,NPO9TFAW,Yes,54787,1,Zone 133,A,111109124
11888900.8036641,7012870.37697023,170,2549,Permanently Removed,NA1928N,dupNA1926N,Arlington County,1900,N NASH ST,KEY BLVD,LANGSTON BLVD,,MULTISPACE CONVERSION 7/2/15,,1970/01/02 00:00:00+00,1970/01/02 00:00:00+00,No,20,,POM,,Rosslyn,Double,,West,,No,,,,,,,,,,1970/01/02 00:00:00+00,0,2019/05/09 11:43:29+00,2024/09/23 10:19:07+00,2024/10/13 02:10:31+00,38.89698724,-77.07347044,,,No,54545,1,,,112288335
11895578.821148,6998094.04628673,171,548,Permanently Removed,20214S,20216S,Arlington County,200,20th ST S,S BELL ST,CRYSTAL DR,,"Reinstall 4/2/14; Temp Fell Down 2/18/14",PERM REMOVED 06/11/2016,2014/04/02 00:00:00+00,2016/06/11 00:00:00+00,No,20,,MacKay,,Crystal City,Double,,South,,No,,,,,,,,,,2014/04/02 00:00:00+00,0,2019/05/09 11:42:38+00,2023/04/28 14:26:58+00,2024/10/13 02:10:31+00,38.85613307,-77.05082891,,S20CLCRS,No,54079,1,,,112608304
11895773.5979894,6993462.50240023,172,2660,Active,PTM3509S,,Arlington County,3500,POTOMAC AVE,S GLEBE RD,35th ST S,54026 - PTM3509S,,INSTALLED IPS 2/23/18,2018/02/23 00:00:00+00,,No,20,4,IPS,M5,Crystal City,Single,Yes,West,1.75,No,MON - SAT 8AM - 8PM,,,,98.69,,,,,2020/09/23 00:00:00+00,0,2019/05/09 11:43:32+00,2024/10/13 01:01:22+00,2024/10/13 02:10:31+00,38.84340911,-77.05040182,,SPOGL35W,Yes,54026,1,Zone 160,B,112648578
11884935.9838379,6992375.18370873,173,1086,Active,CA04008S,,Arlington County,4000,CAMPBELL AVE,S RANDOLPH ST,S QUINCY ST,,Meter deactivated for TOSA. Meter still installed on street but am putting it into Temp Removed status.,INSTALLED 3/5/16,2016/03/05 00:00:00+00,,No,117,2,CALE,CWT,Shirlington,Multi,No,Center Median,1.75,No,MON - SAT 8AM - 8PM,,,,29.29,,,,,2016/03/05 00:00:00+00,3.25,2019/05/09 11:42:53+00,2024/10/13 01:01:22+00,2024/10/13 02:10:31+00,38.84088764,-77.08850681,,,No,54646,6,,,113284321
11888800.3068179,7012340.52862048,174,2608,Active,OAH1701N,,Arlington County,1700,N OAK ST,WILSON BLVD,KEY BLVD,54540 - OAH1701N,,"RELOCATED/REDUCED HR 12 TO 4HR 11/8/19, INSTALL DATE-UNKNOWN",1970/01/02 00:00:00+00,,Yes,20,4,IPS,M5,Rosslyn,Single,Yes,East,1.75,No,MON - SAT 8AM - 8PM,,,,98.5,1401,,WILSON BLVD,,2019/11/07 00:00:00+00,0,2019/05/09 11:43:31+00,2024/10/13 01:01:22+00,2024/10/13 02:10:31+00,38.89553688,-77.07385242,,NOAWIKEE,Yes,54540,1,Zone 103,B,113946094
11884185.3150636,6993175.98558481,175,975,Permanently Removed,AM2702S,AM2700S,Arlington County,2700,S ARLINGTON MILL DR,S TAYLOR ST,CAMPBELL AVE,,knocked over 12/13/13,REINSTALLED 4/14/14,2014/04/14 00:00:00+00,2013/12/14 00:00:00+00,No,20,,Duncan,,Shirlington,Double,,South,,No,,,,,,,,,,2014/04/14 00:00:00+00,0,2019/05/09 11:42:50+00,2023/04/28 15:16:54+00,2024/10/13 02:10:31+00,38.84311785,-77.09109885,,SARTACAS,No,54007,1,,,114626813
11883762.0475375,7009830.06513748,176,1615,Permanently Removed,ED1311N,,Arlington County,1300,N EDGEWOOD ST,WILSON BLVD,CLARENDON BLVD,,,,1970/01/02 00:00:00+00,1970/01/02 00:00:00+00,No,20,,MacKay,,Clarendon,Single,,East,,No,,,,,,,,,,1970/01/02 00:00:00+00,0,2019/05/09 11:43:05+00,2024/09/23 10:19:07+00,2024/10/13 02:10:31+00,38.8888582,-77.0916878,,,No,31301,1,,,114753372
11883348.6107003,7008859.04444173,177,92,Permanently Removed,112900N,112902N,Arlington County,2900,11th ST N,N GARFIELD ST,N FILLMORE ST,,MULTISPACE 9/19/15,,1970/01/02 00:00:00+00,2015/09/19 00:00:00+00,No,20,,,,Clarendon,Double,,South,,No,,,,,,,,,,1970/01/02 00:00:00+00,0,2019/05/09 11:42:25+00,2024/09/23 10:17:50+00,2024/10/13 02:10:31+00,38.88620975,-77.0931924,,N11GAFIS,No,54295,1,,,115058895
11888874.1557516,7013076.83128172,178,2536,Permanently Removed,NA1914N,NA1916N,Arlington County,1900,N NASH ST,KEY BLVD,LANGSTON BLVD,,MULTISPACE CONVERSION 7/2/15,,1970/01/02 00:00:00+00,1970/01/02 00:00:00+00,No,20,,Duncan,,Rosslyn,Double,,West,,No,,,,,,,,,,1970/01/02 00:00:00+00,0,2019/05/09 11:43:29+00,2024/09/23 10:19:07+00,2024/10/13 02:10:31+00,38.89755517,-77.07355279,,,No,54545,1,,,115248890
11885549.9557071,7010408.57447915,179,826,Active,H83N,,Arlington County,2100,CLARENDON BLVD,CLARENDON BLVD,15th ST N,54427 - H83N,G1 Level,"9/11/17 CONVERTED TO IPS, INSTALL DATE- UNKNOWN
Performance Parking No",1970/01/02 00:00:00+00,,Yes,20,12,IPS,M5,Courthouse,Single,Yes,North,1.50,No,MON - FRI 8AM - 5PM,,,,90.93,,,,,2020/01/31 00:00:00+00,0,2019/05/09 11:42:46+00,2024/10/13 01:01:22+00,2024/10/13 02:10:31+00,38.89037097,-77.08537592,,BOZG,No,54427,1,Zone 115,,115936075
11895197.9180384,6996941.8287749,180,1242,Permanently Removed,CLA02300S,,Arlington County,2300,S CLARK ST,23rd ST S,26th ST S,54104 - CLA02300S,,INSTALLED 8/20/15,2015/08/20 00:00:00+00,2022/09/24 00:00:00+00,No,87,2,CALE,CWT,Crystal City,Multi,No,West,1.75,No,MON - SAT 8AM - 8PM,,,,,,,,,2015/08/20 00:00:00+00,0,2019/05/09 11:42:56+00,2023/04/28 15:22:59+00,2024/10/13 02:10:31+00,38.85298626,-77.05223013,,SCL2627W,No,54104,4,,,116438104
11894743.3044463,7001176.46203789,181,998,Permanently Removed,AN302S,,Arlington County,300,ARMY NAVY DR,S EADS ST,12th ST S,,,PERMANETLY REMOVED 4/25/16 / MULTI SPACE CONVERSION,1970/01/02 00:00:00+00,1970/01/02 00:00:00+00,No,20,,MacKay,,Crystal City,Double,,South,,No,,,,,,,,,,1970/01/02 00:00:00+00,0,2019/05/09 11:42:51+00,2024/09/23 10:19:07+00,2024/10/13 02:10:31+00,38.86463174,-77.05359202,,SAR12EAS,No,54352,1,,,117215181
11896649.6936781,7002172.45348422,182,2285,Active,LB0401S,,Arlington County,300,LONG BRIDGE DR,BOUNDARY CHANNEL DR,6th ST S,54083 - LB0401S,"There are two Multi-Meters ID: LB0301S, LB0401S  in this Parallel Parking",INSTALLED 5/15/14,2014/05/15 00:00:00+00,,No,378.5,4,CALE,CWT-S4-Touch Stealth,Crystal City,Multi,No,South,1.50,No,MON - SAT 8AM - 8PM,,,,99.3,401 499,,LONG BRIDGE DR,,2021/11/03 00:00:00+00,2,2019/05/09 11:43:23+00,2024/10/13 01:01:22+00,2024/10/13 02:10:31+00,38.86728348,-77.0468422,,SLOBO6TS,Yes,54083,18.92,Zone 145,B,117235994
11879164.798858,7006992.85755731,183,838,Active,904001N,,Arlington County,4000,9th ST N,N RANDOLPH ST,N QUINCY ST,54159 - 904001N,,INSTALLED 6/12/13,2013/06/12 00:00:00+00,,No,73,2,CALE,CWT-S4-Touch Stealth,Ballston,Multi,No,North,1.75,No,MON - SAT 8AM - 8PM,,,,98.42,,,,,2021/06/08 00:00:00+00,4.25,2019/05/09 11:42:47+00,2024/10/13 01:01:22+00,2024/10/13 02:10:31+00,38.8812614,-77.10798821,,N9TRAQUN,Yes,54159,3.7,Zone 138,A,117344686
11883452.4011751,7000004.22947423,184,3689,Active,LIH900S,,Arlington County,900,S LINCOLN ST,COLUMBIA PIKE,9th ST S,54853 - LIH900S,,INSTALLED 8/10/2020,2020/08/10 00:00:00+00,,Yes,20,4,IPS,M5,Columbia Pike,Single,Yes,West,1.75,No,MON - SAT 8AM - 8PM,3424,,,64.25,918,,S LINCOLN ST,,2020/08/14 00:00:00+00,0,2020/04/17 11:14:33+00,2024/10/13 01:01:22+00,2024/10/13 02:10:31+00,38.8618952,-77.09330446,,,No,54853,1,,,117717362
11877971.222505,7006056.44932514,185,3519,Active,GLB0610N,,VDOT,600,N GLEBE RD,7th ST N,N CARLIN SPRINGS RD,54748 - GLB0610N,,INSTALLED 5/16/18,2018/05/16 00:00:00+00,,No,176,2,CALE,CWT,Ballston,Multi,No,South,1.75,No,"MON - FRI 9AM - 4PM & 7PM - 8PM , SAT 8AM - 8PM",,,,97.85,,,,,2018/05/16 00:00:00+00,3.25,2019/05/09 11:43:52+00,2024/10/13 01:01:22+00,2024/10/13 02:10:31+00,38.87874018,-77.1122303,,NGL7TCAS,No,54748,8.8000002,Zone 142,B,118342491
11884686.6188511,7010047.4442959,186,3551,Permanently Removed,BAH1405N,,Arlington County,1400,S BARTON ST,CLARENDON BLVD,14th ST N,,,"REMOVED, METER IS BAH1403N 6/20/19, INSTALLED 11/9/18",2018/11/09 00:00:00+00,,Yes,20,4,IPS-M5,,Courthouse,Single,,East,1.75,No,MON - SAT 8AM - 8PM,,,,,,,,,2018/11/09 00:00:00+00,0,2019/05/09 11:43:53+00,2023/03/29 21:04:29+00,2024/10/13 02:10:31+00,38.88941601,-77.08842822,,,No,54755,1,,,118518426
11894789.0681343,7000618.31617256,187,114,Permanently Removed,120403S,,Arlington County,300,12th ST S,ARMY NAVY DR,S EADS ST,54354 - 120403S,"FORMERLY 120303S 8/28/2020,, CHANGED HOURS 12 TO 2, RATE $1.25 TO $1.50",INSTALLED 10/14/09,2009/10/14 00:00:00+00,2022/06/16 00:00:00+00,No,104,2,CALE,CWT-S4-Touch Stealth,Crystal City,Multi,No,North,1.75,No,MON - SAT 8AM - 8PM,,,,,,,,,2020/08/28 00:00:00+00,2.25,2019/05/09 11:42:26+00,2023/06/28 08:03:02+00,2024/10/13 02:10:31+00,38.86309742,-77.05346221,,S12AREAN,No,54354,5,,,119028914
11895624.3217131,6998137.95138264,188,547,Permanently Removed,20213S,20211S,Arlington County,200,20th ST S,S BELL ST,CRYSTAL DR,,,PERM REMOVED. DATE UNKNOWN POSSIBLE MAY/JUNE,1970/01/02 00:00:00+00,1970/01/02 00:00:00+00,No,20,,POM,,Crystal City,Double,,North,,No,,,,,,,,,,1970/01/02 00:00:00+00,0,2019/05/09 11:42:38+00,2024/09/23 10:19:07+00,2024/10/13 02:10:31+00,38.85625163,-77.05066671,,S20BECRN,No,54078,1,,,119107757
11884848.1126226,6993600.97554848,189,2564,Permanently Removed,NE2704S,,Arlington County,2700,S NELSON ST,S FOUR MILE RUN DR,27th ST S,,,Perm Removed 06/11/2016,1970/01/02 00:00:00+00,2016/06/11 00:00:00+00,No,20,,MacKay,,Four Mile Run,Single,,West,,No,,,,,,,,,,1970/01/02 00:00:00+00,0,2019/05/09 11:43:30+00,2024/09/23 10:17:50+00,2024/10/13 02:10:31+00,38.84425668,-77.08874912,,,No,54005,1,,,119193878
11881974.4769656,7009050.24058165,190,3522,Active,12H3201N,,Arlington County,3200,12th ST N,N IRVING ST,,54734 - 12H3201N,,INSTALLED 6/1/18,2018/06/01 00:00:00+00,,Yes,20,4,IPS,M5,Clarendon,Single,Yes,North,1.75,No,MON - SAT 8AM - 8PM,,,,98.53,,,,,2020/01/31 00:00:00+00,0,2019/05/09 11:43:52+00,2024/10/13 01:01:23+00,2024/10/13 02:10:31+00,38.88679238,-77.09800903,,N12IRNON,Yes,54734,1,Zone 128,B,119201001
11880526.7551236,7007616.43308181,191,2484,Permanently Removed,MR906N,,Arlington County,900,N MONROE ST,FAIRFAX DR,9th ST N,,"12/22/18 REMOVED MULTIMETER CONVERSION,","INSTALLED IPS 3/23/18, INSTALL DATE-UNKNOWN",1970/01/02 00:00:00+00,1970/01/02 00:00:00+00,No,20,2,IPS,,Virginia Square,Single,,West,1.75,No,MON - SAT 8AM - 8PM,,,,0,,,,,1970/01/02 00:00:00+00,0,2019/05/09 11:43:28+00,2024/09/23 10:31:32+00,2024/10/13 02:10:31+00,38.88291658,-77.10317109,,,No,54193,1,,,119289662
11880272.7950016,7012331.55193239,192,2317,Permanently Removed,LH3504N,LH3506N,VDOT,3500,LANGSTON BLVD,N LINCOLN ST,N MONROE ST,,,,1970/01/02 00:00:00+00,1970/01/02 00:00:00+00,No,20,,Duncan,,Langston Blvd,Double,,South,,No,,,,,,,,,,1970/01/02 00:00:00+00,0,2019/05/09 11:43:24+00,2024/09/23 10:19:07+00,2024/10/13 02:10:31+00,38.89587214,-77.10381123,,,No,54608,1,,,119609527
11885728.9792991,7010688.30817164,193,2815,Permanently Removed,UL1517N,UL1515N,Arlington County,1500,N UHLE ST,15th ST N,CLARENDON BLVD,,converted to cale 2/20/18,,2018/02/20 00:00:00+00,1970/01/02 00:00:00+00,No,20,,Duncan,,Courthouse,Double,,East,,No,,,,,,,,,,2018/02/20 00:00:00+00,0,2019/05/09 11:43:36+00,2024/09/23 10:19:07+00,2024/10/13 02:10:31+00,38.89113137,-77.08473188,,NUH15CLE,No,54409,1,,,120760760
11885437.845695,7000269.68891706,194,1513,Permanently Removed,ED1001S,ED1003S,Arlington County,1000,S EDGEWOOD ST,11th ST S,COLUMBIA PIKE,,new time sticker,10/7/17 Converted to Cale,1970/01/02 00:00:00+00,1970/01/02 00:00:00+00,No,20,2,IPS,M5,Columbia Pike,Double,No,East,1.75,No,MON - SAT 8AM - 8PM,,,,0,,,,,1970/01/02 00:00:00+00,0,2019/05/09 11:43:03+00,2024/09/23 10:39:04+00,2024/10/13 02:10:31+00,38.86254026,-77.08631825,,,No,54577,1,,,120936426
11889683.8795258,7012780.15700631,195,2449,Permanently Removed,LY1815N,LY1817N,Arlington County,1800,N LYNN ST,19th ST N,WILSON BLVD,,,,1970/01/02 00:00:00+00,1970/01/02 00:00:00+00,No,20,,Duncan,,Rosslyn,Double,,East,,No,,,,,,,,,,1970/01/02 00:00:00+00,0,2019/05/09 11:43:27+00,2024/09/23 10:14:15+00,2024/10/13 02:10:31+00,38.8967061,-77.07072428,,,No,35401,1,,,120942419
11887093.2912031,7011567.20864481,196,3241,Active,WI01801N,,Arlington County,1800,WILSON BLVD,N QUINN ST,N RHODES ST,54498 - WI01801N,,INSTALLED 4/30/11,2011/04/30 00:00:00+00,,No,106,12,CALE,CWT-S4-Touch Stealth,Rosslyn,Multi,No,North,1.50,No,MON - FRI 8AM - 8PM,,,,99.52,,,,,2021/10/05 00:00:00+00,1,2019/05/09 11:43:46+00,2024/10/13 01:01:23+00,2024/10/13 02:10:31+00,38.89348646,-77.07989141,,NWIQURHN,Yes,54498,5.3000002,Zone 110,A,121166448
11884333.6418667,7010018.82427439,197,1233,Active,CL1404N,,Arlington County,1400,N CLEVELAND ST,WILSON BLVD,CLARENDON BLVD,54380 - CL1404N,,"INSTALLED IPS 2/9/18, INSTALL DATE- UNKNOWN",2018/02/09 00:00:00+00,,No,20,2,IPS,M5,Courthouse,Single,Yes,West,1.75,No,MON - SAT 8AM - 8PM,,,,91.28,,,,,2021/04/07 00:00:00+00,0,2019/05/09 11:42:56+00,2024/10/13 01:01:23+00,2024/10/13 02:10:31+00,38.88935233,-77.08966971,,NCLWICLW,Yes,54380,1,Zone 118,B,122467736
11895936.9182008,6997222.94632289,198,1310,Active,CR02202S,,Arlington County,2200,CRYSTAL DR,20th ST S,23rd ST S,54066 - CR02202S,,INSTALLED 9/23/16,2016/09/23 00:00:00+00,,No,88.5,2,CALE,CWT,Crystal City,Multi,No,West,1.75,No,MON - SAT 8AM - 8PM,,,,99.3,2250,,CRYSTAL DR,,2023/06/22 00:00:00+00,6.75,2019/05/09 11:42:58+00,2024/10/13 01:01:19+00,2024/10/13 02:10:31+00,38.85372601,-77.04961989,,SCR2023W,No,54066,4,Zone 154,A,123224384
11886073.5455391,7009906.54201864,199,1195,Permanently Removed,CH1311N,CH1309N,Arlington County,1300,N COURTHOUSE RD,14th ST N,13th ST N,,CONVERTED TO MULTISPACE 10/24/15,,1970/01/02 00:00:00+00,2015/10/24 00:00:00+00,No,20,,,,Courthouse,Double,,,,No,,,,,,,,,,1970/01/02 00:00:00+00,0,2019/05/09 11:42:55+00,2024/09/23 10:17:50+00,2024/10/13 02:10:31+00,38.88897052,-77.08356382,,,No,54412,1,,,124058934
11881048.2088051,7007768.91177948,200,829,Active,903400N,,Arlington County,3400,9th ST N,N KANSAS ST,N LINCOLN ST,54660 - 903400N,,INSTALLED 05/27/16,2016/05/27 00:00:00+00,,No,100,4,CALE,CWT,Virginia Square,Multi,No,South,1.75,No,MON - SAT 8AM - 8PM,,,,99.85,,,,,2016/05/27 00:00:00+00,3.25,2019/05/09 11:42:46+00,2024/10/13 01:01:19+00,2024/10/13 02:10:31+00,38.8833134,-77.10133132,,N9TKALIS,Yes,54660,5,Zone 130,B,124251129
11878079.1812786,7007444.75002623,201,2974,Permanently Removed,SU1005N,SU1003N,Arlington County,1000,N STUART ST,FAIRFAX DR,11th ST N,,,CONVERTED TO CALE 3/3/18,1970/01/02 00:00:00+00,1970/01/02 00:00:00+00,No,20,,MacKay,,Ballston,Double,,East,,No,,,,,,,,,,1970/01/02 00:00:00+00,0,2019/05/09 11:43:39+00,2024/09/23 10:19:07+00,2024/10/13 02:10:31+00,38.88254717,-77.11177738,,NSUFA11E,No,54126,1,,,124383581
11895918.2279495,6999489.05563581,202,3730,Active,15200S,,Arlington County,200,15th ST S,S BELL ST,CRYSTAL DR,54877 - 15200S,,INSTALLED 4/3/21,2021/04/03 00:00:00+00,,No,20,2,IPS,M5,Crystal City,Double,No,South,1.75,No,MON - SAT 8AM - 8PM,,,,89.56,200 228,,15th ST S,,2021/04/03 00:00:00+00,0,2021/03/24 14:55:49+00,2024/10/13 01:01:19+00,2024/10/13 02:10:31+00,38.85994822,-77.0495598,,S15BECRS,Yes,54877,1,Zone 153,A,124387984
11889693.8306214,7012523.89111464,203,2351,Permanently Removed,LY01701N,,Arlington County,1800,N LYNN ST,19th ST N,WILSON BLVD,54557 - LY01701N,,INSTALLED 6/12/13,2013/06/12 00:00:00+00,2024/09/26 00:00:00+00,No,20,1,CALE,CWT-S4-Touch Stealth,Rosslyn,Multi,No,East,1.75,No,MON - SAT 8AM - 8PM,,,,96.02,,,,,2024/03/18 00:00:00+00,3.25,2019/05/09 11:43:25+00,2024/09/26 11:49:13+00,2024/10/13 02:10:31+00,38.89600213,-77.07070334,,NLY19WIE,Yes,54557,1,Zone 101,A,124664275
11889635.2375627,7012466.28361832,204,2378,Permanently Removed,LY1712N,LY1714N,Arlington County,1700,N LYNN ST,WILSON BLVD,19th ST N,,Temp Rem 11/10/14,,1970/01/02 00:00:00+00,1970/01/02 00:00:00+00,No,20,,MacKay,,Rosslyn,Double,,West,,No,,,,,,,,,,1970/01/02 00:00:00+00,0,2019/05/09 11:43:25+00,2024/09/23 10:14:15+00,2024/10/13 02:10:31+00,38.89584648,-77.07091233,,,No,54556,1,,,125343808
11893133.1200026,6998971.9605414,205,2010,Active,HA01600S,,Arlington County,1500,S HAYES ST,15th ST S,18th ST S,54362 - HA01600S,,INSTALLED 05/03/16,2016/05/03 00:00:00+00,,No,88,12,CALE,CWT,Pentagon City,Multi,No,South,1.25,No,MON - FRI 8AM - 8PM,,,,40.72,,,,,2016/05/03 00:00:00+00,1,2019/05/09 11:43:15+00,2024/10/13 01:01:19+00,2024/10/13 02:10:31+00,38.858649,-77.05936784,,SHA1518S,Yes,54362,4.4000001,Zone 150,B,126897648
11893103.6374501,6999017.00999197,206,2057,Permanently Removed,HA1540S,,Arlington County,1500,S HAYES ST,18th ST S,15th ST S,,Rem for bike lanes 8/13/14,,1970/01/02 00:00:00+00,1970/01/02 00:00:00+00,No,20,,MacKay,,Pentagon City,Single,,West,,No,,,,,,,,,,1970/01/02 00:00:00+00,0,2019/05/09 11:43:16+00,2024/09/23 10:19:07+00,2024/10/13 02:10:31+00,38.85877394,-77.05946888,,,No,54362,1,,,127111046
11883537.2399162,6999636.75186272,207,3425,Active,COH3404S,,Arlington County,3400,COLUMBIA PIKE,S MONROE ST,S LINCOLN ST,54723 - COH3404S,CHANGED FROM COH3402S TO COH3404S 9/12/19,INSTALLED 6/24/17,2017/06/24 00:00:00+00,,Yes,20,4,IPS,M5,Columbia Pike,Single,Yes,South,1.75,No,MON - SAT 8AM - 8PM,,,,92.01,,,,,2020/02/11 00:00:00+00,0,2019/05/09 11:43:50+00,2024/10/13 01:01:19+00,2024/10/13 02:10:31+00,38.86088275,-77.09302633,,,No,54723,1,,,127982465
11884897.99999,6992261.74266264,208,2895,Permanently Removed,RA2805S,RA2803S,Arlington County,2800,S RANDOLPH ST,S ARLINGTON MILL DR,CAMPBELL AVE,,,,1970/01/02 00:00:00+00,2021/10/19 00:00:00+00,No,20,,POM,,Shirlington,Double,,East,,No,,,,,,,,,,1970/01/02 00:00:00+00,0,2019/05/09 11:43:37+00,2024/09/23 10:17:50+00,2024/10/13 02:10:31+00,38.8405778,-77.08864627,,,No,1801,1,,,128094597
11891939.521668,7000305.07598539,209,2185,Active,JO01303S,,Arlington County,1300,S JOYCE ST,ARMY NAVY DR,15th ST S,54376 - JO01303S,,INSTALLED 10/20/15,2015/10/20 00:00:00+00,,No,147,2,CALE,CWT,Pentagon City,Multi,No,East,1.75,No,MON - SAT 8AM - 8PM,,,,99.27,1301 1399,,S JOYCE ST,,2015/10/20 00:00:00+00,30.5,2019/05/09 11:43:20+00,2024/10/13 01:01:19+00,2024/10/13 02:10:31+00,38.8623603,-77.06348568,,SJOAR15E,Yes,54376,7.3499999,Zone 147,B,128941814
11883019.9719219,7008527.36498697,210,3056,Active,WA03000N,,Arlington County,3000,WASHINGTON BLVD,N HIGHLAND ST,10th ST N,54291 - WA03000N,,INSTALL DATE  09/23/2016,2016/09/23 00:00:00+00,,No,78,2,CALE,CWT,Clarendon,Multi,No,South,1.75,No,MON - SAT 8AM - 8PM,,,,99.49,,,,,2016/09/23 00:00:00+00,3.25,2019/05/09 11:43:41+00,2024/10/13 01:01:19+00,2024/10/13 02:10:31+00,38.88531298,-77.09436464,,NWAHI10S,Yes,54291,3.9000001,Zone 124,A,130572375
11888340.6574747,7012628.03427906,211,2237,Permanently Removed,KB1427N,,Arlington County,1400,KEY BLVD,N ODE ST,N OAK ST,,,PERM REMOVED 08/13/2016,1970/01/02 00:00:00+00,1970/01/02 00:00:00+00,No,20,,MacKay,,Rosslyn,Single,,North,,No,,,,,,,,,,1970/01/02 00:00:00+00,0,2019/05/09 11:43:22+00,2024/09/23 10:14:15+00,2024/10/13 02:10:31+00,38.89634579,-77.07545155,,,No,54517,1,,,130996842
11888966.8770228,7012361.64931314,212,2517,Permanently Removed,NA1724N,,Arlington County,1700,N NASH ST,WILSON BLVD,17th ST N,,MISLABLED!,PERM REMOVED 06/11/2016,1970/01/02 00:00:00+00,1970/01/02 00:00:00+00,No,20,,POM,,Rosslyn,Single,,North,,No,,,,,,,,,,1970/01/02 00:00:00+00,0,2019/05/09 11:43:28+00,2024/09/23 10:14:15+00,2024/10/13 02:10:31+00,38.89558776,-77.07326609,,,No,54544,1,,,131022473
11888577.5287201,7011688.58077739,213,1142,Permanently Removed,CB1520N,CB1518N,Arlington County,1500,CLARENDON BLVD,17th ST N,N ODE ST,,Temporarily Removed per Permit #PWT1102394,PERM REMOVED DATE UNKNOWN 01/04/2017,1970/01/02 00:00:00+00,2017/01/04 00:00:00+00,No,20,,MacKay,,Rosslyn,Double,,South,,No,,,,,,,,,,1970/01/02 00:00:00+00,0,2019/05/09 11:42:54+00,2024/09/23 10:17:50+00,2024/10/13 02:10:31+00,38.89375652,-77.07467063,,,No,36902,1,,,131890093
11895652.6953441,6994534.24730398,214,3709,Active,PTM03001S,,Arlington County,3000,POTOMAC AVE,CRYSTAL DR,33rd ST S,54863 - PTM03001S,,INSTALLED 10/10/2020,2020/10/10 00:00:00+00,,No,148,12,CALE,CWT,Crystal City,Multi,No,East,1.50,No,MON - FRI 8AM - 8PM,,,,99.46,3001 3099,,POTOMAC AVE,,,1,2020/09/08 09:47:24+00,2024/10/13 01:01:19+00,2024/10/13 02:10:31+00,38.84635674,-77.05076686,,SPOCR33E,Yes,54863,7.4000001,Zone 159,A,132259358
11887662.3770071,7011424.57441564,215,1151,Permanently Removed,CB1706N,CB1708N,Arlington County,1700,CLARENDON BLVD,N QUINN ST,N QUEEN ST,,Temp. Removed for Construction Permit #PWT1200131,,1970/01/02 00:00:00+00,2021/10/19 00:00:00+00,No,20,,Duncan,,Rosslyn,Double,,South,,No,,,,,,,,,,1970/01/02 00:00:00+00,0,2019/05/09 11:42:54+00,2024/09/23 10:17:50+00,2024/10/13 02:10:31+00,38.89307069,-77.07789996,,,No,0,1,,,133488905
11884781.0313919,7008738.17493281,216,1031,Permanently Removed,BA1012N,BA1014N,Arlington County,1000,N BARTON ST,11th ST N,10th ST N,,,INSTALL DATE- UNKNOWN,1970/01/02 00:00:00+00,1970/01/02 00:00:00+00,No,20,,MacKay,,Courthouse,Double,,West,,No,,,,,,,,,,1970/01/02 00:00:00+00,0,2019/05/09 11:42:51+00,2024/09/23 10:19:07+00,2024/10/13 02:10:31+00,38.88581754,-77.0881673,,,No,54384,1,,,134486750
11884492.375145,7000044.78812015,217,1290,Active,CO03101S,,Arlington County,3100,COLUMBIA PIKE,S HIGHLAND ST,S GLEBE RD,54582 - CO03101S,"FORMERLY CO03103S 5/21/2020, CHANGED ID TO CO03101S ON 6/17/20",INSTALLED 3/17/10,2009/05/21 00:00:00+00,,No,136,2,CALE,CWT,Columbia Pike,Multi,No,North,1.75,No,MON - SAT 8AM - 8PM,,,,93.13,,,,,2020/10/06 00:00:00+00,1,2019/05/09 11:42:58+00,2024/10/13 01:01:19+00,2024/10/13 02:10:31+00,38.86196274,-77.08965042,,,No,54582,6.8000002,,,134500932
11895519.148039,6995863.60127255,218,656,Permanently Removed,26210S,26208S,Arlington County,200,26th ST S,S CLARK ST,CRYSTAL DR,,,PERM REMOVED 08/13/2016,1970/01/02 00:00:00+00,2016/08/13 00:00:00+00,No,20,,Duncan,,Crystal City,Double,,South,,No,,,,,,,,,,1970/01/02 00:00:00+00,0,2019/05/09 11:42:41+00,2024/09/23 10:17:50+00,2024/10/13 02:10:31+00,38.85001216,-77.05116204,,S26CLCRS,No,54039,1,,,136524194
11887893.3817945,7010832.29311989,219,3413,Active,QE1501N,QE1503N,Arlington County,1500,N QUEEN ST,16th ST N,FAIRFAX DR,54714 - QE1501N,,INSTALLED 5/18/2017,2017/05/18 00:00:00+00,,No,20,12,IPS,M5,Rosslyn,Double,Yes,East,1.50,No,MON - FRI 8AM - 8PM,,,,93.51,,,,,2021/07/22 00:00:00+00,0,2019/05/09 11:43:50+00,2024/10/13 01:01:19+00,2024/10/13 02:10:31+00,38.89143481,-77.07712069,,NQU16FAE,Yes,54714,1,Zone 108,B,137214851
11884510.4230092,7009623.42513081,220,1653,Active,FA02501N,,Arlington County,2500,FAIRFAX DR,N CLEVELAND ST,N BARTON ST,54424 - FA02501N,,INSTALLED 6/04/16,2016/06/04 00:00:00+00,,No,147,12,CALE,CWT,Courthouse,Multi,No,North,1.50,No,MON - FRI 8AM - 8PM,,,,61.28,,,,,2016/06/04 00:00:00+00,1,2019/05/09 11:43:06+00,2024/10/13 01:01:19+00,2024/10/13 02:10:31+00,38.88825934,-77.08907006,,NFACLBAN,Yes,54424,7.3499999,Zone 119,B,137427033
11887463.6674308,7012966.77015014,221,2710,Permanently Removed,QN1903N,QN1901N,Arlington County,1900,N QUINN ST,KEY BLVD,LANGSTON BLVD,,,PERM REMOVED 08/13/2016,1970/01/02 00:00:00+00,2016/08/13 00:00:00+00,No,20,,,,Rosslyn,Double,,,,No,,,,,,,,,,1970/01/02 00:00:00+00,0,2019/05/09 11:43:33+00,2024/09/23 10:17:50+00,2024/10/13 02:10:31+00,38.89731308,-77.07851413,,NQUKELAE,No,54530,1,,,137472132
11886586.0737136,7010347.74061131,222,3003,Permanently Removed,TF1405N,,Arlington County,1400,N TAFT ST,15th ST N,14th ST N,,CONVERTED TO MULTISPACE 10/24/15,,1970/01/02 00:00:00+00,1970/01/02 00:00:00+00,No,20,,Duncan,,Courthouse,Single,,East,,No,,,,,,,,,,1970/01/02 00:00:00+00,0,2019/05/09 11:43:40+00,2024/09/23 10:19:07+00,2024/10/13 02:10:31+00,38.89016006,-77.08173947,,NTA1513E,No,54419,1,,,138054792
11885928.5999629,7009594.50491306,223,163,Permanently Removed,132000N,,Arlington County,2100,13th ST N,N VEITCH ST,N COURTHOUSE RD,,"CONVERTED TO MULTISPACE 10/17/15; 2HR CHANGED TO 12HR ON 12/24/12",,1970/01/02 00:00:00+00,2015/10/17 00:00:00+00,No,20,,MacKay,,Courthouse,Single,,South,,No,,,,,,,,,,1970/01/02 00:00:00+00,0,2019/05/09 11:42:27+00,2024/09/23 10:17:50+00,2024/10/13 02:10:31+00,38.88811999,-77.0840899,,N13COVES,No,54427,1,,,138268033
11883038.6743123,7009483.90310015,224,3518,Active,WIH3000N,,Arlington County,3000,WILSON BLVD,N HIGHLAND ST,N GARFIELD ST,54740 - WIH3000N,,INSTALLED 5/15/18,2018/05/15 00:00:00+00,,Yes,20,4,IPS,M5,Clarendon,Single,Yes,South,1.75,No,MON - SAT 8AM - 8PM,,,,95.93,,,,,2020/12/11 00:00:00+00,0,2019/05/09 11:43:52+00,2024/10/13 01:01:20+00,2024/10/13 02:10:31+00,38.88793828,-77.09424749,,NWIHIGAS,Yes,54740,1,Zone 122,B,139006532
11886293.9443766,7009982.67933357,225,3033,Permanently Removed,TR1312N,,Arlington County,1300,N TROY ST,14th ST N,13th ST N,,CONVERTED TO MULTISPACE 10/24/15,,1970/01/02 00:00:00+00,2015/10/24 00:00:00+00,No,20,,,,Courthouse,Single,,,,No,,,,,,,,,,1970/01/02 00:00:00+00,0,2019/05/09 11:43:41+00,2024/09/23 10:17:50+00,2024/10/13 02:10:31+00,38.88917021,-77.08278548,,NTR1413W,No,54415,1,,,139341412
11888718.575026,7011374.18803348,226,356,Permanently Removed,161514N,,Arlington County,1500,16th RD N,N ODE ST,N OAK ST,,,PERM REMOVED 08/13/2016,1970/01/02 00:00:00+00,2016/08/13 00:00:00+00,No,20,,MacKay,,Rosslyn,Single,,South,,No,,,,,,,,,,1970/01/02 00:00:00+00,0,2019/05/09 11:42:33+00,2024/09/23 10:17:50+00,2024/10/13 02:10:31+00,38.89288738,-77.07419229,,N16OAODS,No,54485,1,,,140025507
11889630.9304847,7011649.34890048,227,2357,Permanently Removed,LY1605N,,Arlington County,1600,N LYNN ST,WILSON BLVD,FAIRFAX DR,,,,1970/01/02 00:00:00+00,1970/01/02 00:00:00+00,No,20,,MacKay,,Rosslyn,Single,,West,,No,,,,,,,,,,1970/01/02 00:00:00+00,0,2019/05/09 11:43:25+00,2024/09/23 10:19:07+00,2024/10/13 02:10:31+00,38.89360385,-77.07097214,,,No,35501,1,,,140630910
11889349.3775701,7011924.9799109,228,1847,Permanently Removed,FM1721N,,Arlington County,1700,FORT MYER DR,WILSON BLVD,FAIRFAX DR,,,,1970/01/02 00:00:00+00,1970/01/02 00:00:00+00,No,20,,MacKay,,Rosslyn,Single,,East,,No,,,,,,,,,,1970/01/02 00:00:00+00,0,2019/05/09 11:43:11+00,2024/09/23 10:14:15+00,2024/10/13 02:10:31+00,38.8943726,-77.07194618,,,No,54548,1,,,142202191
11863574.6463113,7008727.0788264,229,3216,Permanently Removed,WES2003N,WES2001N,Arlington County,2000,N WESTMORELAND ST,LANGSTON BLVD,19th RD N,,,PERM REMOVED 10/15/2016 - Cale Conversion,2016/10/15 00:00:00+00,1970/01/02 00:00:00+00,No,20,,Duncan,,East Falls Church,Double,,North,,No,,,,,,,,,,2016/10/15 00:00:00+00,0,2019/05/09 11:43:45+00,2024/09/23 10:19:07+00,2024/10/13 02:10:31+00,38.88665889,-77.16265946,,NWELA19N,No,54598,1,,,142911737
11880422.9019848,7008006.69148764,230,2464,Active,MR0901N,,Arlington County,900,N MONROE ST,FAIRFAX DR,WASHINGTON BLVD,54197 - MR0901N,"10/4/18 Previously ID MR0901-M, XSTREET 1 &2",INSTALLED 6/21/13,2013/06/21 00:00:00+00,,No,113,2,CALE,CWT-S4-Touch Stealth,Virginia Square,Multi,No,East,1.75,No,MON - SAT 8AM - 8PM,,,,95.55,3503,,FAIRFAX DR,,2021/10/14 00:00:00+00,4.25,2019/05/09 11:43:27+00,2024/10/13 01:01:20+00,2024/10/13 02:10:31+00,38.88399234,-77.10351503,,NMOFAWAE,Yes,54197,5.6500001,Zone 135,B,142973729
11888088.11172,7010975.60943431,231,3416,Active,PI1502N,PI1500N,Arlington County,1500,N PIERCE ST,16th ST N,FAIRFAX DR,54715 - PI1502N,,INSTALLED 5/18/2017,2017/05/18 00:00:00+00,,No,20,12,IPS,M5,Rosslyn,Double,Yes,West,1.50,No,MON - FRI 8AM - 8PM,,,,92.8,,,,,2021/11/09 00:00:00+00,0,2019/05/09 11:43:50+00,2024/10/13 01:01:20+00,2024/10/13 02:10:31+00,38.89181998,-77.07642881,,NPI16FAW,Yes,54715,1,Zone 106,B,143299497
